country,locality,yearCollected,eventID,principalInvestigator,samplingProtocol,sampleCollectionDeviceEvent,collectorList,continentOcean,municipality,county,dayCollected,locationID,locationRemarks,decimalLatitude,decimalLongitude,decimalLatitudeEnd,decimalLongitudeEnd,depthOfBottomInMeters,eventEnteredBy,habitat,environmentalMedium,horizontalDatum,island,islandGroup,waterBody,landowner,verbatimLocality,maximumDepthInMeters,maximumElevationInMeters,verbatimElevation,verbatimEventDate,coordinateUncertaintyInMeters,coordinatePrecision,georeferenceProtocol,microHabitat,minimumDepthInMeters,verbatimDepth,minimumElevationInMeters,monthCollected,permitInformation,eventRemarks,stateProvince,taxTeam,timeOfDay,verbatimLatitude,verbatimLongitude,fundingSource,fieldNotes,substratum,earliestEonOrLowestEonothem,latestEonOrHighestEonotheme,earliestEraOrLowestErathem,latestEraOrHighestErathem,earliestPeriodOrLowestSystem,latestPeriodOrHighestSystem,earliestEpochOrLowestSeries,latestEpochOrHighestSeries,earliestAgeOrLowestStage,latestAgeOrHighestStage,lowestBiostratigraphicZone,highestBiostratigraphicZone,geologicalContextID,latestChronometricAge,latestChronometricAgeReferenceSystem,earliestChronometricAge,earliestChronometricAgeReferenceSystem,chronometricAgeID,chronometricAgeProtocol,chronometricAgeUncertaintyMethod,chronometricAgeUncertaintyInYears,verbatimChronometricAge,materialDated,uncalibratedChronometricAge,chronometricAgeDeterminedBy,lithostratigraphicTerms,group,formation,member,bed,culturalContext,culturalOccupationPeriod,culturalRegions,culturalAffiliations,waterTemperatureInDegreesCelsius,waterSurfaceTemperatureInDegreesCelsius,bcid,expeditionCode,projectId,
Australia,"Melbourne, Victoria",1998,00601cffeaebd98365d648fe0cfeb48a,"Berger, Lee - Lee.Berger[at]dah.csiro.au",,,,Australasia,,,,300012,,-37.8142,144.9632,,,,,,,,,,,,,,,,,,,"Google Earth, based on location name",,,,,,,D | 1 | 1,Victoria,,,,,,,,,,,,,,,,,,,,,,,,,,,,,,,,,,,,,,,,,,,,https://n2t.net/ark:/21547/DsB200601cffeaebd98365d648fe0cfeb48a,release1,300,
Australia,Unknown,2013,006605a0ab92b9da6ffb6171885c833b,Laura Brannelly,,,Laura Brannelly,,,,17,,,-36.359,148.484,,,,,,,,,,,,,,,,,30,,,,,,1519,11,,,,,,,,,,,,,,,,,,,,,,,,,,,,,,,,,,,,,,,,,,,,,,,https://n2t.net/ark:/21547/DQT2006605a0ab92b9da6ffb6171885c833b,zawacki,222,
Australia,"Merri Creek catchment, north outskirts of Melbourne",2004,00822ad48437d3528d16939e4257299c,"Heard, Geoffrey - heardg[at]unimelb.edu.au",,,,Australasia,,,,300903,,-34.632222,144.956667,,,,,,,,,,,,,,,,,,,"DMS, converted",,,,,,,D | 1 | 1,Victoria,,,,,,,,,,,,,,,,,,,,,,,,,,,,,,,,,,,,,,,,,,,,https://n2t.net/ark:/21547/DsB200822ad48437d3528d16939e4257299c,release1,300,
Australia,Tully Gorge National Park,2007,0097f03a77c3a8674a0e13289607a756,"Grogan, Laura - l.grogan[at]griffith.edu",,,,Australasia,,,9,301057,,-17.766667,145.633333,,,,,,,,,,,,,,,,,,,"DMS, converted",,,,,5,,D | 1 | 1,Queensland,,,,,,,,,,,,,,,,,,,,,,,,,,,,,,,,,,,,,,,,,,,,https://n2t.net/ark:/21547/DsN20097f03a77c3a8674a0e13289607a756,release2,300,
Australia,Thornton Uplands and Carbine Tablelands,2009,00a9983edcbda0616a3996614f2622aa,"Puschendorf, Robert",,,,Australasia,,,,301698,,-16.32,145.28,,,,,,,,,,,,,,,,,,,decimal degrees to 2 dec pts coordinates given as corners of region sampled,,,,,3,,D | 2 | 2,Queensland,,,,,,,,,,,,,,,,,,,,,,,,,,,,,,,,,,,,,,,,,,,,https://n2t.net/ark:/21547/DsN200a9983edcbda0616a3996614f2622aa,release2,300,
Australia,"Westgid Creek, near Bellenden Ker, NQ",2000,0101db34dfe65e66ea15662fa713f009,"Murray, Kris A - k.murray1[at]uq.edu.au",,,,Australasia,,,,300815,,-17.26988,145.90118,,,,,,,,,,,,,,185,,,,,Decimal degrees,,,,185,,,D | 1 | 2,Queensland,,,,,,,,,,,,,,,,,,,,,,,,,,,,,,,,,,,,,,,,,,,,https://n2t.net/ark:/21547/DsB20101db34dfe65e66ea15662fa713f009,release1,300,
Australia,Murphys Swamp,2012,0114e92874f9c475c77bc98f7fdaf959,"Brannelly, Laura - laura.brannelly[at]my.jcu.edu.au",,,,Australasia,,,,301018,,-35.452253,148.394819,,,,,,,,,,,,,,1239,,,,,"Google Earth, NSW topo maps",,,,,,,D | 1 | 1,New South Wales,,,,,,,,,,,,,,,,,,,,,,,,,,,,,,,,,,,,,,,,,,,,https://n2t.net/ark:/21547/DsN20114e92874f9c475c77bc98f7fdaf959,release2,300,
Australia,"Boy-Ull Creek - above Twin Falls, Nerang River catchment",2005,012a84ebe04b113f041963c72c1f7bb6,"Kriger, Kerry M - kerry[at]savethefrogs.com",,,,Australasia,,,,300569,,-28.226111,153.276111,,,,,,,,,,,,,,760,,,,,"DMS, converted",,,,760,,,D | 2 | 2,Queensland,,,,,,,,,,,,,,,,,,,,,,,,,,,,,,,,,,,,,,,,,,,,https://n2t.net/ark:/21547/DsB2012a84ebe04b113f041963c72c1f7bb6,release1,300,
Australia,"Bundoomba Creek, Lamington National Park",2002,014a6e783f05fe2c2111067cb2b390a2,"Symonds, Emma P (Pearl) - pearl66[at]bigpond.com.au",,,,Australasia,,,,300140,,-28.21667,153.13333,,,,,,,,,,,,,,530,,,,,"DMS, converted",,,,530,,,D | 1 | 1,Queensland,,,,,,,,,,,,,,,,,,,,,,,,,,,,,,,,,,,,,,,,,,,,https://n2t.net/ark:/21547/DsB2014a6e783f05fe2c2111067cb2b390a2,release1,300,
Australia,Midland,1992,014cc0313cc48d15b2436879d5d2bdff,"Murray, Kris A - k.murray1[at]uq.edu.au",,,,Australasia,,,,300507,,-31.85,116.03333,,,,,,,,,,,,,,119,,,,,Decimal degrees,,,,119,,,D | 1 | 3,Western Australia,,,,,,,,,,,,,,,,,,,,,,,,,,,,,,,,,,,,,,,,,,,,https://n2t.net/ark:/21547/DsB2014cc0313cc48d15b2436879d5d2bdff,release1,300,
Australia,Savage river4,2007,016fbd5833a038d93b458540797315f1,"Driessen, Michael M - michael.driessen[at]dpipwe.tas.gov.au",,,,Australasia,,,,300271,,-41.52797,145.21141,,,,,,,,,,,,,,223,,,,,Decimal degrees,,,,223,1,,ND | <unk> | <unk>,Tasmania,,,,,,,,,,,,,,,,,,,,,,,,,,,,,,,,,,,,,,,,,,,,https://n2t.net/ark:/21547/DsB2016fbd5833a038d93b458540797315f1,release1,300,
Australia,"Homebush Bay, NSW",1997,0178a6c7803ac6a3bab961c5ecb41a07,"Murray, Kris A - k.murray1[at]uq.edu.au",,,,Australasia,,,,300410,,-33.86806,151.08234,,,,,,,,,,,,,,4,,,,,Decimal degrees,,,,4,,,D | 1 | 1,New South Wales,,,,,,,,,,,,,,,,,,,,,,,,,,,,,,,,,,,,,,,,,,,,https://n2t.net/ark:/21547/DsB20178a6c7803ac6a3bab961c5ecb41a07,release1,300,
Australia,"Herdsman Lake, Osborne Park",1986,017a9ebb2f4008e786181f3751f750d6,"Murray, Kris A - k.murray1[at]uq.edu.au",,,,Australasia,,,,300497,,-31.898,115.812,,,,,,,,,,,,,,31,,,,,Decimal degrees,,,,31,,,D | 1 | 1,Western Australia,,,,,,,,,,,,,,,,,,,,,,,,,,,,,,,,,,,,,,,,,,,,https://n2t.net/ark:/21547/DsB2017a9ebb2f4008e786181f3751f750d6,release1,300,
Australia,"Clohesy river Rd, W of Kuranda",2003,018b1cfbfda3662f2461749a6c5a3299,"Murray, Kris A - k.murray1[at]uq.edu.au",,,,Australasia,,,,300828,,-16.90722,145.56778,,,,,,,,,,,,,,495,,,,,Decimal degrees,,,,495,,,ND | 0 | 2,Queensland,,,,,,,,,,,,,,,,,,,,,,,,,,,,,,,,,,,,,,,,,,,,https://n2t.net/ark:/21547/DsB2018b1cfbfda3662f2461749a6c5a3299,release1,300,
Australia,"Wayville, SA",1998,01b7a84fb6f81204cf94f77ba3622c76,"Murray, Kris A - k.murray1[at]uq.edu.au",,,,Australasia,,,,300348,,-34.94522,138.58926,,,,,,,,,,,,,,56,,,,,Decimal degrees,,,,56,,,D | 1 | 1,South Australia,,,,,,,,,,,,,,,,,,,,,,,,,,,,,,,,,,,,,,,,,,,,https://n2t.net/ark:/21547/DsB201b7a84fb6f81204cf94f77ba3622c76,release1,300,
Australia,Site 3 - Darraweit Guim,2010,01c3c0f30f8d891ed41bf5466468237b,See reference,,,,Australasia,,,14,301092,,-37.397538,144.916509,,,,,,,,,,,,,,,,,,,"UTM coordinates, converted",,,,,4,,ND | 0 | 1,Victoria,,,,,,,,,,,,,,,,,,,,,,,,,,,,,,,,,,,,,,,,,,,,https://n2t.net/ark:/21547/DsN201c3c0f30f8d891ed41bf5466468237b,release2,300,
Australia,lake st Clair1,2006,01ce992846f4dc1074a9b4f9ad6d7bf8,"Driessen, Michael M - michael.driessen[at]dpipwe.tas.gov.au",,,,Australasia,,,,300244,,-42.1237,146.21276,,,,,,,,,,,,,,760,,,,,Decimal degrees,,,,760,,,ND | <unk> | <unk>,Tasmania,,,,,,,,,,,,,,,,,,,,,,,,,,,,,,,,,,,,,,,,,,,,https://n2t.net/ark:/21547/DsB201ce992846f4dc1074a9b4f9ad6d7bf8,release1,300,
Australia,Burke and Wills Roadhouse area,2003,02134ed8f2bbc3676094ba997aca94f3,"Murray, Kris A - k.murray1[at]uq.edu.au",,,,Australasia,,,,300726,,-19.36833,140.55472,,,,,,,,,,,,,,125,,,,,Decimal degrees,,,,125,,,ND | 0 | 2,Queensland,,,,,,,,,,,,,,,,,,,,,,,,,,,,,,,,,,,,,,,,,,,,https://n2t.net/ark:/21547/DsB202134ed8f2bbc3676094ba997aca94f3,release1,300,
Australia,"Daves catchment, open farmland",2005,0252c637956a1299c0cd825b8e3174c0,"Van Sluys, Monique - vansluys[at]uerj.br",,,,Australasia,,,28,300959,,-28.219111,153.231889,,,,,,,,,,,,,,200,,,,,"DMS, converted",,,,,11,,D | 1 | 1,Queensland,,,,,,,,,,,,,,,,,,,,,,,,,,,,,,,,,,,,,,,,,,,,https://n2t.net/ark:/21547/DsN20252c637956a1299c0cd825b8e3174c0,release2,300,
Australia,"Windin Creek North, Wooroonooran National Park",2005,02b09a059210e96ad677b4b93b90c2fb,"Woodhams, Douglas C - dwoodhams[at]gmail.com",,,,Australasia,,,,300920,,-17.365833,145.715,,,,,,,,,,,,,,750,,,,,"DMS, converted",,,,750,9,,D | 1 | 1,Queensland,,,,,,,,,,,,,,,,,,,,,,,,,,,,,,,,,,,,,,,,,,,,https://n2t.net/ark:/21547/DsB202b09a059210e96ad677b4b93b90c2fb,release1,300,
Australia,Strahan56,2007,02c1f489789ee9f5f4ad95205833dd79,"Driessen, Michael M - michael.driessen[at]dpipwe.tas.gov.au",,,,Australasia,,,,300236,,-42.24606,145.61746,,,,,,,,,,,,,,261,,,,,Decimal degrees,,,,261,1,,ND | <unk> | <unk>,Tasmania,,,,,,,,,,,,,,,,,,,,,,,,,,,,,,,,,,,,,,,,,,,,https://n2t.net/ark:/21547/DsB202c1f489789ee9f5f4ad95205833dd79,release1,300,
Australia,Unknown,2013,02daa5bc55969796d171f4545a61e1d9,Laura Brannelly,,,Laura Brannelly,,,,16,,,-36.372,148.452,,,,,,,,,,,,,,,,,30,,,,,,1606,11,,,,,,,,,,,,,,,,,,,,,,,,,,,,,,,,,,,,,,,,,,,,,,,https://n2t.net/ark:/21547/DQT202daa5bc55969796d171f4545a61e1d9,zawacki,222,
Australia,The Bluff Hut,2008,02db6a28a40d5338a21db6608306861a,See reference,,,,Australasia,,,27,301095,,-37.217021,146.524733,,,,,,,,,,,,,,,,,,,"Google Earth, Mapcarta, based on location name",,,,,10,,D | 1 | 1,Victoria,,,,,,,,,,,,,,,,,,,,,,,,,,,,,,,,,,,,,,,,,,,,https://n2t.net/ark:/21547/DsN202db6a28a40d5338a21db6608306861a,release2,300,
Australia,"Small tributary of Teviot Brook that rises between Mount Roberts and Mount Bell (second gully crossing along old forestry road), Main Range National Park (formerly Teviot Forest Reserve), south-east Queensland.",1999,02e114e34e23ad051b0798676fe80f02,"Murray, Kris A - k.murray1[at]uq.edu.au",,,,Australasia,,,,300576,,-28.22186,152.4782,,,,,,,,,,,,,,892,,,,,Decimal degrees,,,,892,,,ND | 0 | 1,Queensland,,,,,,,,,,,,,,,,,,,,,,,,,,,,,,,,,,,,,,,,,,,,https://n2t.net/ark:/21547/DsB202e114e34e23ad051b0798676fe80f02,release1,300,
Australia,"Pinjara Hills, Brisbane",1983,02eb378b7518792d7239316b96446e5b,"Murray, Kris A - k.murray1[at]uq.edu.au",,,,Australasia,,,,300621,,-27.468,153.028,,,,,,,,,,,,,,15,,,,,Decimal degrees,,,,15,,,D | 3 | 3,Queensland,,,,,,,,,,,,,,,,,,,,,,,,,,,,,,,,,,,,,,,,,,,,https://n2t.net/ark:/21547/DsB202eb378b7518792d7239316b96446e5b,release1,300,
Australia,Chudleigh,2005,03878301da6153c6fced3e065f5d0bab,"Obendorf, David - davidobendorf[at]tassie.net.auMurray, Kris - k.murray1[at]uq.edu.au",,,,Australasia,,,,300269,,-41.54931,146.42206,,,,,,,,,,,,,,297,,,,,Decimal degrees,,,,297,,,ND | <unk> | <unk>,Tasmania,,,,,,,,,,,,,,,,,,,,,,,,,,,,,,,,,,,,,,,,,,,,https://n2t.net/ark:/21547/DsB203878301da6153c6fced3e065f5d0bab,release1,300,
Australia,"1.25Km W Vlam Rd, Bussel Hwy",1994,038e6ba3cc47a7e86be328c87d02cd7b,"Murray, Kris A - k.murray1[at]uq.edu.au",,,,Australasia,,,,300382,,-34.11667,115.08333,,,,,,,,,,,,,,38,,,,,Decimal degrees,,,,38,,,ND | 0 | 1,Western Australia,,,,,,,,,,,,,,,,,,,,,,,,,,,,,,,,,,,,,,,,,,,,https://n2t.net/ark:/21547/DsB2038e6ba3cc47a7e86be328c87d02cd7b,release1,300,
Australia,Collinsville - Bowen Road,2002,03aab8a45ac1c29e197593a2fdb876e5,"Murray, Kris A - k.murray1[at]uq.edu.au",,,,Australasia,,,,300717,,-20.09333,148.14083,,,,,,,,,,,,,,46,,,,,Decimal degrees,,,,46,,,ND | 0 | 1,Queensland,,,,,,,,,,,,,,,,,,,,,,,,,,,,,,,,,,,,,,,,,,,,https://n2t.net/ark:/21547/DsB203aab8a45ac1c29e197593a2fdb876e5,release1,300,
Australia,"Saddletree Creek, Bunya Mountains National Park",2002,044c869857ddcbc7251e8fae12ec767d,"Symonds, Emma P (Pearl) - pearl66[at]bigpond.com.au",,,,Australasia,,,,300132,,-26.86667,151.6,,,,,,,,,,,,,,920,,,,,"DMS, converted",,,,920,,,D | 1 | 1,Queensland,,,,,,,,,,,,,,,,,,,,,,,,,,,,,,,,,,,,,,,,,,,,https://n2t.net/ark:/21547/DsB2044c869857ddcbc7251e8fae12ec767d,release1,300,
Australia,Central Plateau3,2006,047602d380f0e4cd1e708fc2ce0a0287,"Driessen, Michael M - michael.driessen[at]dpipwe.tas.gov.au",,,,Australasia,,,,300252,,-41.87541,146.60567,,,,,,,,,,,,,,1056,,,,,Decimal degrees,,,,1056,,,ND | <unk> | <unk>,Tasmania,,,,,,,,,,,,,,,,,,,,,,,,,,,,,,,,,,,,,,,,,,,,https://n2t.net/ark:/21547/DsB2047602d380f0e4cd1e708fc2ce0a0287,release1,300,
Australia,"East Cedar Creek, below the junction of two major branches, Mapleton Forest Reserve, south-east Queensland.",2000,047c0f81ec40871cfc3c03b6b3befc32,"Murray, Kris A - k.murray1[at]uq.edu.au",,,,Australasia,,,,300668,,-26.56523,152.85642,,,,,,,,,,,,,,306,,,,,Decimal degrees,,,,306,,,ND | 0 | 2,Queensland,,,,,,,,,,,,,,,,,,,,,,,,,,,,,,,,,,,,,,,,,,,,https://n2t.net/ark:/21547/DsB2047c0f81ec40871cfc3c03b6b3befc32,release1,300,
Australia,Tyagarah Nature Reserve,2006,04c312030f19615132868a842a3061b1,"Simpkins, Clay - claysimpkins[at]hotmail.com",,,,Australasia,,,18,300956,,-28.6068,153.5676,,,,,,,,,,,,,,,,,,,Decimal degrees,,,,,1,,D | 1 | 1,Queensland,,,,,,,,,,,,,,,,,,,,,,,,,,,,,,,,,,,,,,,,,,,,https://n2t.net/ark:/21547/DsN204c312030f19615132868a842a3061b1,release2,300,
Australia,South Coast track8,2007,04d8725fe9b102f0384311e62ebf81ae,"Driessen, Michael M - michael.driessen[at]dpipwe.tas.gov.au",,,,Australasia,,,,300176,,-43.60623,146.74596,,,,,,,,,,,,,,84,,,,,Decimal degrees,,,,84,1,,ND | <unk> | <unk>,Tasmania,,,,,,,,,,,,,,,,,,,,,,,,,,,,,,,,,,,,,,,,,,,,https://n2t.net/ark:/21547/DsB204d8725fe9b102f0384311e62ebf81ae,release1,300,
Australia,"Ogilvies Dam, Kosciuszko National Park",2013,04da65209c909f18170b1cd23c41ac37,"Brannelly, Laura - laura.brannelly[at]my.jcu.edu.au",,,,Australasia,,,22,301007,,-36.015831,148.327788,,,,,,,,,,,,,,,,,250,,"Google Earth, NSW topo maps",,,,,10,,D | 2 | 2,New South Wales,,,,,,,,,,,,,,,,,,,,,,,,,,,,,,,,,,,,,,,,,,,,https://n2t.net/ark:/21547/DsN204da65209c909f18170b1cd23c41ac37,release2,300,
Australia,Unknown,2013,04edebaf34c7343394f190a60930da82,Laura Brannelly,,,Laura Brannelly,,,,12,,,-36.359,148.484,,,,,,,,,,,,,,,,,30,,,,,,1519,11,,,,,,,,,,,,,,,,,,,,,,,,,,,,,,,,,,,,,,,,,,,,,,,https://n2t.net/ark:/21547/DQT204edebaf34c7343394f190a60930da82,zawacki,222,
Australia,"Head of Three Moon Creek, Kroombit Tops National Park, south-west of Gladstone, south-east Queensland.",1999,04fbc968380e3e2e1b24712e89980334,"Murray, Kris A - k.murray1[at]uq.edu.au",,,,Australasia,,,,300683,,-24.40595,151.03063,,,,,,,,,,,,,,545,,,,,Decimal degrees,,,,545,,,ND | 0 | 1,Queensland,,,,,,,,,,,,,,,,,,,,,,,,,,,,,,,,,,,,,,,,,,,,https://n2t.net/ark:/21547/DsB204fbc968380e3e2e1b24712e89980334,release1,300,
Australia,"Frog Bog, Knocklofty Reserve",2005,051653e5ef1302a0caf7990d250c09a5,"Obendorf, David - davidobendorf[at]tassie.net.auMurray, Kris - k.murray1[at]uq.edu.au",,,,Australasia,,,,300210,,-42.88691,147.30126,,,,,,,,,,,,,,,,,,,Decimal degrees,,,,,,,D | <unk> | <unk>,Tasmania,,,,,,,,,,,,,,,,,,,,,,,,,,,,,,,,,,,,,,,,,,,,https://n2t.net/ark:/21547/DsB2051653e5ef1302a0caf7990d250c09a5,release1,300,
Australia,Tully Gorge National Park,2006,0521df6698fa1d32d9b7ecb5bef0cde8,"Grogan, Laura - l.grogan[at]griffith.edu",,,,Australasia,,,18,301057,,-17.766667,145.633333,,,,,,,,,,,,,,,,,,,"DMS, converted",,,,,5,,D | 1 | 1,Queensland,,,,,,,,,,,,,,,,,,,,,,,,,,,,,,,,,,,,,,,,,,,,https://n2t.net/ark:/21547/DsN20521df6698fa1d32d9b7ecb5bef0cde8,release2,300,
Australia,"Lake Mountain, Marysville, Site L11, Echo Flat",2009,055a05fec355519747e446abb34967c7,See reference,,,,Australasia,,,,301078,,-37.485048,145.882206,,,,,,,,,,,,,,,,,,,"publication map, Google Earth",,,,,,,D | 1 | <unk>,Victoria,,,,,,,,,,,,,,,,,,,,,,,,,,,,,,,,,,,,,,,,,,,,https://n2t.net/ark:/21547/DsN2055a05fec355519747e446abb34967c7,release2,300,
Australia,"Above Minyon Falls, NSW",1998,05637212777dd926007c7ef5a985f85d,"Murray, Kris A - k.murray1[at]uq.edu.au",,,,Australasia,,,,300551,,-28.615,153.385,,,,,,,,,,,,,,308,,,,,Decimal degrees,,,,308,,,ND | 0 | 1,New South Wales,,,,,,,,,,,,,,,,,,,,,,,,,,,,,,,,,,,,,,,,,,,,https://n2t.net/ark:/21547/DsB205637212777dd926007c7ef5a985f85d,release1,300,
Australia,Sale,1998,0565df66f799359c11771071bd8c05a2,"Murray, Kris A - k.murray1[at]uq.edu.au",,,,Australasia,,,,300296,,-38.10944,147.06333,,,,,,,,,,,,,,37,,,,,Decimal degrees,,,,37,,,ND | 0 | 1,Victoria,,,,,,,,,,,,,,,,,,,,,,,,,,,,,,,,,,,,,,,,,,,,https://n2t.net/ark:/21547/DsB20565df66f799359c11771071bd8c05a2,release1,300,
Australia,"Murray Falls, eastern Queensland",2005,0599df44ef8ef4d57ab6556d21b30a89,"Kriger, Kerry M - kmk5g[at]yahoo.com",,,,Australasia,,,,300077,,-18.153,145.816,,,,,,,,,,,,,,95,,,,,Decimal degrees,,,,95,,,D | 1 | 1,Queensland,,,,,,,,,,,,,,,,,,,,,,,,,,,,,,,,,,,,,,,,,,,,https://n2t.net/ark:/21547/DsB20599df44ef8ef4d57ab6556d21b30a89,release1,300,
Australia,37 KM NE Denmark,1999,05aa0a8a619fe1adcf7083853884187a,"Murray, Kris A - k.murray1[at]uq.edu.au",,,,Australasia,,,,300358,,-34.73333,117.63333,,,,,,,,,,,,,,124,,,,,Decimal degrees,,,,124,,,D | 1 | 2,Western Australia,,,,,,,,,,,,,,,,,,,,,,,,,,,,,,,,,,,,,,,,,,,,https://n2t.net/ark:/21547/DsB205aa0a8a619fe1adcf7083853884187a,release1,300,
Australia,"Bold Park, Perth",1994,066b53b27a961bc9bfa1ba7df4ff5b36,"Murray, Kris A - k.murray1[at]uq.edu.au",,,,Australasia,,,,300477,,-31.93333,115.76667,,,,,,,,,,,,,,7,,,,,Decimal degrees,,,,7,,,ND | 0 | 2,Western Australia,,,,,,,,,,,,,,,,,,,,,,,,,,,,,,,,,,,,,,,,,,,,https://n2t.net/ark:/21547/DsB2066b53b27a961bc9bfa1ba7df4ff5b36,release1,300,
Australia,"Goomburra, Qld",1997,06e8e575d92de54c77e495f812c4fefd,"Murray, Kris A - k.murray1[at]uq.edu.au",,,,Australasia,,,,300004,,-27.98266,152.35028,,,,,,,,,,,,,,881,,,,,Decimal degrees,,,,881,,,D | 3 | 6,Queensland,,,,,,,,,,,,,,,,,,,,,,,,,,,,,,,,,,,,,,,,,,,,https://n2t.net/ark:/21547/DsB206e8e575d92de54c77e495f812c4fefd,release1,300,
Australia,Yabbra Ck Falls,1998,06ec237ca190abe05aad8cd951ae5a6c,"Murray, Kris A - k.murray1[at]uq.edu.au",,,,Australasia,,,,300547,,-28.732,152.434,,,,,,,,,,,,,,314,,,,,Decimal degrees,,,,314,,,ND | 0 | 1,New South Wales,,,,,,,,,,,,,,,,,,,,,,,,,,,,,,,,,,,,,,,,,,,,https://n2t.net/ark:/21547/DsB206ec237ca190abe05aad8cd951ae5a6c,release1,300,
Australia,"Bo Bo River, nr Dorrigo, NSW",2009,0705cd15aaacb9574fce300e80679f3a,"Murray, Kris A - k.murray1[at]uq.edu.au",,,,Australasia,,,,300031,,-30.382,152.751,,,,,,,,,,,,,,438,,,,,Decimal degrees,,,,438,,,D | 1 | 1,New South Wales,,,,,,,,,,,,,,,,,,,,,,,,,,,,,,,,,,,,,,,,,,,,https://n2t.net/ark:/21547/DsB20705cd15aaacb9574fce300e80679f3a,release1,300,
Australia,"Ledge Beach, Albany",1979,070ee5a56039b3e57d39c2b915953d82,"Murray, Kris A - k.murray1[at]uq.edu.au",,,,Australasia,,,,300340,,-35.01667,117.98333,,,,,,,,,,,,,,0,,,,,Decimal degrees,,,,0,,,ND | 0 | 1,Western Australia,,,,,,,,,,,,,,,,,,,,,,,,,,,,,,,,,,,,,,,,,,,,https://n2t.net/ark:/21547/DsB2070ee5a56039b3e57d39c2b915953d82,release1,300,
Australia,"Naracoorte airport, southeastern South Australia",2008,07374f38b282c62aa6ad998b7256dfe6,"V_r_s, Judit - jvoros[at]nhmus.hu",,,,Australasia,,,,300875,,-36.98,140.74,,,,,,,,,,,,,,74,,,,,Decimal degrees,,,,74,12,,ND | 0 | 1,South Australia,,,,,,,,,,,,,,,,,,,,,,,,,,,,,,,,,,,,,,,,,,,,https://n2t.net/ark:/21547/DsB207374f38b282c62aa6ad998b7256dfe6,release1,300,
Australia,"Frenchman Creek, Wooroonooran National Park, Queensland",1999,07c0223c61806f539eefc180e2b8a25c,"Berger, Lee - Lee.Berger[at]dah.csiro.au",,,,Australasia,,,,300047,,-17.30753,145.91808,,,,,,,,,,,,,,142,,,,,Decimal degrees,,,,142,,,D | 1 | 1,Queensland,,,,,,,,,,,,,,,,,,,,,,,,,,,,,,,,,,,,,,,,,,,,https://n2t.net/ark:/21547/DsB207c0223c61806f539eefc180e2b8a25c,release1,300,
Australia,Walpole-Nornalup Nat. Park,1986,07c1bdb67957a7c5f0bc4e921e5fc8a2,"Murray, Kris A - k.murray1[at]uq.edu.au",,,,Australasia,,,,300339,,-35.01667,116.85,,,,,,,,,,,,,,161,,,,,Decimal degrees,,,,161,,,ND | 0 | 1,Western Australia,,,,,,,,,,,,,,,,,,,,,,,,,,,,,,,,,,,,,,,,,,,,https://n2t.net/ark:/21547/DsB207c1bdb67957a7c5f0bc4e921e5fc8a2,release1,300,
Australia,"Booloumba Falls, Mary River catchement",2004,07f9ddf8ac74ddaedaf7e33d3064940b,"Kriger, Kerry M - kerry[at]savethefrogs.com",,,,Australasia,,,,300661,,-26.686111,152.62,,,,,,,,,,,,,,430,,,,,"DMS, converted",,,,430,,,D | 2 | 2,Queensland,,,,,,,,,,,,,,,,,,,,,,,,,,,,,,,,,,,,,,,,,,,,https://n2t.net/ark:/21547/DsB207f9ddf8ac74ddaedaf7e33d3064940b,release1,300,
Australia,"Mt. Lewis, site CU10",2004,0812b2c289adfaff2cc04590a9712db6,"Hauselberger, Kim - kim.hauselberger[at]my.jcu.edu.au",,,,Australasia,,,,300926,,-16.586833,145.272667,,,,,,,,,,,,,,1000,,,,,"DMS, converted",,,,1000,9,,ND | 0 | 2,Queensland,,,,,,,,,,,,,,,,,,,,,,,,,,,,,,,,,,,,,,,,,,,,https://n2t.net/ark:/21547/DsB20812b2c289adfaff2cc04590a9712db6,release1,300,
Australia,Unknown,2013,084786e52f057eda12e986d815b16b7a,Laura Brannelly,,,Laura Brannelly,,,,10,,,-36.359,148.484,,,,,,,,,,,,,,,,,30,,,,,,1519,10,,,,,,,,,,,,,,,,,,,,,,,,,,,,,,,,,,,,,,,,,,,,,,,https://n2t.net/ark:/21547/DQT2084786e52f057eda12e986d815b16b7a,zawacki,222,
Australia,Pabral Road,2006,092f9277ec8f12f203df2a99ec4d4ace,"Hunter, David - david.hunter[at]environment.nsw.gov.au",,,,Australasia,,,,300331,,-35.29975,148.80922,,,,,,,,,,,,,,758,,,,,Decimal degrees,,,,758,,,ND | 0 | 1,New South Wales,,,,,,,,,,,,,,,,,,,,,,,,,,,,,,,,,,,,,,,,,,,,https://n2t.net/ark:/21547/DsB2092f9277ec8f12f203df2a99ec4d4ace,release1,300,
Australia,"Stoney Creek, Hull River National Park",2010,0945555058d50fa4594320fd378e165a,"Sapsford, Sarah J - sarah.sapsford[at]gmail.com",,,,Australasia,,,,301055,,-17.921389,146.068611,,,,,,,,,,,,,,18,,,,,"DMS, converted",,,,,6,,D | 1 | 1,Queensland,,,,,,,,,,,,,,,,,,,,,,,,,,,,,,,,,,,,,,,,,,,,https://n2t.net/ark:/21547/DsN20945555058d50fa4594320fd378e165a,release2,300,
Australia,Northcliffe,2009,09642b0d6f796d025823d8e598b37d2d,"Murray, Kris A - k.murray1[at]uq.edu.au",,,,Australasia,,,,300364,,-34.65,116.11667,,,,,,,,,,,,,,62,,,,,Decimal degrees,,,,62,,,ND | 0 | 1,Western Australia,,,,,,,,,,,,,,,,,,,,,,,,,,,,,,,,,,,,,,,,,,,,https://n2t.net/ark:/21547/DsB209642b0d6f796d025823d8e598b37d2d,release1,300,
Australia,"Beachport, southeastern South Australia",2008,09979af13e53de5ef4dcac75072e9aff,"V_r_s, Judit - jvoros[at]nhmus.hu",,,,Australasia,,,,300877,,-37.4,140.12,,,,,,,,,,,,,,39,,,,,Decimal degrees,,,,39,12,,D | 1 | 1,South Australia,,,,,,,,,,,,,,,,,,,,,,,,,,,,,,,,,,,,,,,,,,,,https://n2t.net/ark:/21547/DsB209979af13e53de5ef4dcac75072e9aff,release1,300,
Australia,"Bundaroo Creek, Conondale Range, SEQ",1999,09d208cc8c500aa50c1af6c61e16b310,"Murray, Kris A - k.murray1[at]uq.edu.au",,,,Australasia,,,,300660,,-26.68684,152.61739,,,,,,,,,,,,,,456,,,,,Decimal degrees,,,,456,,,ND | 0 | 1,Queensland,,,,,,,,,,,,,,,,,,,,,,,,,,,,,,,,,,,,,,,,,,,,https://n2t.net/ark:/21547/DsB209d208cc8c500aa50c1af6c61e16b310,release1,300,
Australia,Middle Swan,1993,0a40586d102407a71271848c94a9e251,"Murray, Kris A - k.murray1[at]uq.edu.au",,,,Australasia,,,,300502,,-31.86667,116,,,,,,,,,,,,,,94,,,,,Decimal degrees,,,,94,,,ND | 0 | 1,Western Australia,,,,,,,,,,,,,,,,,,,,,,,,,,,,,,,,,,,,,,,,,,,,https://n2t.net/ark:/21547/DsB20a40586d102407a71271848c94a9e251,release1,300,
Australia,Augusta,1963,0a6551ee7e99b6f90426bb047ac04856,"Murray, Kris A - k.murray1[at]uq.edu.au",,,,Australasia,,,,300375,,-34.33333,115.15,,,,,,,,,,,,,,6,,,,,Decimal degrees,,,,6,,,ND | 0 | 1,Western Australia,,,,,,,,,,,,,,,,,,,,,,,,,,,,,,,,,,,,,,,,,,,,https://n2t.net/ark:/21547/DsB20a6551ee7e99b6f90426bb047ac04856,release1,300,
Australia,"Frenchman Creek, Wooroonooran National Park",2005,0aa6c85ec7a5c6ec7c71777b92ef8edc,"Woodhams, Douglas C - dwoodhams[at]gmail.com",,,,Australasia,,,,300922,,-17.308889,145.921111,,,,,,,,,,,,,,40,,,,,"DMS, converted",,,,40,9,,D | 1 | 1,Queensland,,,,,,,,,,,,,,,,,,,,,,,,,,,,,,,,,,,,,,,,,,,,https://n2t.net/ark:/21547/DsB20aa6c85ec7a5c6ec7c71777b92ef8edc,release1,300,
Australia,Triunia Nat Park,1999,0ad5452ed69f2b5cd9f40ce2db9b1da6,"Murray, Kris A - k.murray1[at]uq.edu.au",,,,Australasia,,,,300665,,-26.654,152.904,,,,,,,,,,,,,,253,,,,,Decimal degrees,,,,253,,,D | 1 | 1,Queensland,,,,,,,,,,,,,,,,,,,,,,,,,,,,,,,,,,,,,,,,,,,,https://n2t.net/ark:/21547/DsB20ad5452ed69f2b5cd9f40ce2db9b1da6,release1,300,
Australia,Lake Broadwater Quarry Dam site 3,2007,0b0cb8424dfbaa9c4d21ff230bd25783,"Simpkins, Clay - c.simpkins[at]griffith.edu.au",,,,Australasia,,,26,300882,,-27.3765,151.1088,,,,,,,,,,,,,,396,,,,,Decimal degrees,,,,396,9,,ND | 0 | 1,Queensland,,,,,,,,,,,,,,,,,,,,,,,,,,,,,,,,,,,,,,,,,,,,https://n2t.net/ark:/21547/DsB20b0cb8424dfbaa9c4d21ff230bd25783,release1,300,
Australia,"Kiandra, Eucumbene, and Three Mile dam, Kosciuszko National Park",2012,0b0e3c7079753d7f064ee4522c79b9b5,"Scheele, Ben - ben.scheele[at]anu.edu.au",,,,Australasia,,,,301008,,-36.004521,148.527575,,,,,,,,,,,,,,,,,,,"Google Earth, NSW topo maps",,,,,12,,D | 1 | 1,New South Wales,,,,,,,,,,,,,,,,,,,,,,,,,,,,,,,,,,,,,,,,,,,,https://n2t.net/ark:/21547/DsN20b0e3c7079753d7f064ee4522c79b9b5,release2,300,
Australia,"Kiandra, Kosciuszko National Park",2006,0b16961dce8d5c354c1fff2c145e5e66,See reference,,,,Australasia,,,18,301012,,-35.866944,148.498056,,,,,,,,,,,,,,1358,,,,,"DMS, converted; coordinate from Brannelly et al. 2015",,,,,10,,D | 3 | 4,New South Wales,,,,,,,,,,,,,,,,,,,,,,,,,,,,,,,,,,,,,,,,,,,,https://n2t.net/ark:/21547/DsN20b16961dce8d5c354c1fff2c145e5e66,release2,300,
Australia,Burke and Wills Roadhouse area,2003,0be28e1609f71ae60c1fa17b8a86d462,"Murray, Kris A - k.murray1[at]uq.edu.au",,,,Australasia,,,,300745,,-19.05139,140.02778,,,,,,,,,,,,,,103,,,,,Decimal degrees,,,,103,,,ND | 0 | 1,Queensland,,,,,,,,,,,,,,,,,,,,,,,,,,,,,,,,,,,,,,,,,,,,https://n2t.net/ark:/21547/DsB20be28e1609f71ae60c1fa17b8a86d462,release1,300,
Australia,Broadwater Creek,1999,0c051d21ca2961206c6ec56fcb6f2af9,"Murray, Kris A - k.murray1[at]uq.edu.au",,,,Australasia,,,,300751,,-18.39388,145.95361,,,,,,,,,,,,,,316,,,,,Decimal degrees,,,,316,,,D | 1 | 3,Queensland,,,,,,,,,,,,,,,,,,,,,,,,,,,,,,,,,,,,,,,,,,,,https://n2t.net/ark:/21547/DsB20c051d21ca2961206c6ec56fcb6f2af9,release1,300,
Australia,Rosa Glen,1999,0c49f628a40fb95a50c497f2c282cd4d,"Murray, Kris A - k.murray1[at]uq.edu.au",,,,Australasia,,,,300403,,-33.96667,115.21667,,,,,,,,,,,,,,42,,,,,Decimal degrees,,,,42,,,D | 1 | 3,Western Australia,,,,,,,,,,,,,,,,,,,,,,,,,,,,,,,,,,,,,,,,,,,,https://n2t.net/ark:/21547/DsB20c49f628a40fb95a50c497f2c282cd4d,release1,300,
Australia,"Stoney Creek, Hull River National Park",2010,0c7bbf0bd39d84f5012e3ba8de2c1ac1,"Sapsford, Sarah - sarah.sapsford[at]gmail.com",,,,Australasia,,,,300953,,-17.921639,146.068667,,,,,,,,,,,,,,18,,,,,"DMS, converted",,,,18,6,,D | 1 | 1,Queensland,,,,,,,,,,,,,,,,,,,,,,,,,,,,,,,,,,,,,,,,,,,,https://n2t.net/ark:/21547/DsB20c7bbf0bd39d84f5012e3ba8de2c1ac1,release1,300,
Australia,Lake Gwelup,1992,0c9060b0d0743a7d08f857cef480d435,"Murray, Kris A - k.murray1[at]uq.edu.au",,,,Australasia,,,,300506,,-31.85,115.78333,,,,,,,,,,,,,,19,,,,,Decimal degrees,,,,19,,,ND | 0 | 1,Western Australia,,,,,,,,,,,,,,,,,,,,,,,,,,,,,,,,,,,,,,,,,,,,https://n2t.net/ark:/21547/DsB20c9060b0d0743a7d08f857cef480d435,release1,300,
Australia,"Tully - Intens Monit Site, Qld",1998,0cdc643ee585e1e018fb70fc3a4b6a9a,"Murray, Kris A - k.murray1[at]uq.edu.au",,,,Australasia,,,,300761,,-17.77361,145.64472,,,,,,,,,,,,,,356,,,,,Decimal degrees,,,,356,,,D | 4 | 4,Queensland,,,,,,,,,,,,,,,,,,,,,,,,,,,,,,,,,,,,,,,,,,,,https://n2t.net/ark:/21547/DsB20cdc643ee585e1e018fb70fc3a4b6a9a,release1,300,
Australia,"Spring Creek, above Queen Mary Falls, Main Range National Park, south-east Queensland.",2000,0d02c27f035d714865f3e97bf73ad2a6,"Murray, Kris A - k.murray1[at]uq.edu.au",,,,Australasia,,,,300562,,-28.34237,152.37252,,,,,,,,,,,,,,862,,,,,Decimal degrees,,,,862,,,D | 2 | 3,Queensland,,,,,,,,,,,,,,,,,,,,,,,,,,,,,,,,,,,,,,,,,,,,https://n2t.net/ark:/21547/DsB20d02c27f035d714865f3e97bf73ad2a6,release1,300,
Australia,"Upper Snakey, Kosciuszko NP",2006,0d35790e0367797a0fcf230dd6a8e69e,"Hunter, David - david.hunter[at]environment.nsw.gov.au",,,,Australasia,,,,300310,,-36.10216,148.23537,,,,,,,,,,,,,,1502,,,,,Decimal degrees,,,,1502,,,D | 1 | 1,New South Wales,,,,,,,,,,,,,,,,,,,,,,,,,,,,,,,,,,,,,,,,,,,,https://n2t.net/ark:/21547/DsB20d35790e0367797a0fcf230dd6a8e69e,release1,300,
Australia,Perry Lakes - East Basin,1999,0d4c8ad41cc672ce707152be9267a458,"Murray, Kris A - k.murray1[at]uq.edu.au",,,,Australasia,,,,300478,,-31.93333,115.78333,,,,,,,,,,,,,,11,,,,,Decimal degrees,,,,11,,,D | 3 | 5,Western Australia,,,,,,,,,,,,,,,,,,,,,,,,,,,,,,,,,,,,,,,,,,,,https://n2t.net/ark:/21547/DsB20d4c8ad41cc672ce707152be9267a458,release1,300,
Australia,Broadwater Creek,2000,0dd27b4b7146e318f43f08f39e36f225,"Murray, Kris A - k.murray1[at]uq.edu.au",,,,Australasia,,,,300751,,-18.39388,145.95361,,,,,,,,,,,,,,316,,,,,Decimal degrees,,,,316,,,D | 1 | 3,Queensland,,,,,,,,,,,,,,,,,,,,,,,,,,,,,,,,,,,,,,,,,,,,https://n2t.net/ark:/21547/DsB20dd27b4b7146e318f43f08f39e36f225,release1,300,
Australia,"Lake Clarendon near Gathon, SEQ",1999,0e169b6274dc0e75fbbb59d4317f1d78,"Murray, Kris A - k.murray1[at]uq.edu.au",,,,Australasia,,,,300617,,-27.51667,152.86667,,,,,,,,,,,,,,142,,,,,Decimal degrees,,,,142,,,ND | 0 | 3,Queensland,,,,,,,,,,,,,,,,,,,,,,,,,,,,,,,,,,,,,,,,,,,,https://n2t.net/ark:/21547/DsB20e169b6274dc0e75fbbb59d4317f1d78,release1,300,
Australia,"Harry's/Lewis Lane, northern coast of NSW",2012,0e27cab38576529671b647fcca6f5af6,"Lettoof, Damian - damian.lettoof[at]sydney.edu.au",,,,Australasia,,,,301034,,-29.358566,153.236941,,,,,,,,,,,,,,,,,,,"UTM coordinates, converted",,,,,5,,ND | 0 | 3,New South Wales,,,,,,,,,,,,,,,,,,,,,,,,,,,,,,,,,,,,,,,,,,,,https://n2t.net/ark:/21547/DsN20e27cab38576529671b647fcca6f5af6,release2,300,
Australia,"Witchcliffe, Western Australia",1998,0e40f856513dfa221cc74ca6ffc5547b,"Berger, Lee - Lee.Berger[at]dah.csiro.au",,,,Australasia,,,,300022,,-34.01667,115.1,,,,,,,,,,,,,,16,,,,,Decimal degrees,,,,16,,,D | 1 | 1,Western Australia,,,,,,,,,,,,,,,,,,,,,,,,,,,,,,,,,,,,,,,,,,,,https://n2t.net/ark:/21547/DsB20e40f856513dfa221cc74ca6ffc5547b,release1,300,
Australia,Burketown Rd,2005,0e7706d04c06c428bc2f8f10b7f3dc66,"Murray, Kris A - k.murray1[at]uq.edu.au",,,,Australasia,,,,300770,,-17.72306,141,,,,,,,,,,,,,,8,,,,,Decimal degrees,,,,8,,,ND | 0 | 5,Queensland,,,,,,,,,,,,,,,,,,,,,,,,,,,,,,,,,,,,,,,,,,,,https://n2t.net/ark:/21547/DsB20e7706d04c06c428bc2f8f10b7f3dc66,release1,300,
Australia,"Brisbane, Qld",1995,0e98a02db8d2856ec3adca39bb2fd9f4,"Murray, Kris A - k.murray1[at]uq.edu.au",,,,Australasia,,,,300621,,-27.468,153.028,,,,,,,,,,,,,,15,,,,,Decimal degrees,,,,15,,,D | 3 | 3,Queensland,,,,,,,,,,,,,,,,,,,,,,,,,,,,,,,,,,,,,,,,,,,,https://n2t.net/ark:/21547/DsB20e98a02db8d2856ec3adca39bb2fd9f4,release1,300,
Australia,"Forrestfield, Perth",1998,0eabb9cec7ade728a11b5c71e96d85ea,"Murray, Kris A - k.murray1[at]uq.edu.au",,,,Australasia,,,,300475,,-31.95,115.86667,,,,,,,,,,,,,,52,,,,,Decimal degrees,,,,52,,,D | 1 | 2,Western Australia,,,,,,,,,,,,,,,,,,,,,,,,,,,,,,,,,,,,,,,,,,,,https://n2t.net/ark:/21547/DsB20eabb9cec7ade728a11b5c71e96d85ea,release1,300,
Australia,"Upper Jagumba, Kosciuszko National Park",2005,0edaba3b933a9d67155e7396d5141bee,"Hunter, David - david.hunter[at]environment.nsw.gov.au",,,,Australasia,,,,300891,,-36.041038,148.260601,,,,,,,,,,,,,,,,,,,Google EarthNew South Wales online topographic maps,,,,,,,D | 1 | 1,New South Wales,,,,,,,,,,,,,,,,,,,,,,,,,,,,,,,,,,,,,,,,,,,,https://n2t.net/ark:/21547/DsB20edaba3b933a9d67155e7396d5141bee,release1,300,
Australia,"Big Dargal 2, Kosciuszko National Park",2005,0f2370573456ab42e6e26df698a4aaf8,"Hunter, David - david.hunter[at]environment.nsw.gov.au",,,,Australasia,,,,300888,,-36.110203,148.236832,,,,,,,,,,,,,,,,,,,Google EarthNew South Wales online topographic maps,,,,,,,D | 1 | 1,New South Wales,,,,,,,,,,,,,,,,,,,,,,,,,,,,,,,,,,,,,,,,,,,,https://n2t.net/ark:/21547/DsB20f2370573456ab42e6e26df698a4aaf8,release1,300,
Australia,"Copperfield River, Blackbraes Resources Reserve",2016,0f2a8ae2b48ef1e30684f881d1053d04,"Catullo, Renee - renee.catullo[at]gmail.com",,,,Australasia,,,19,300973,,-19.466,144.159,,,,,,,,,,,,,,,,,110,,Decimal degrees; coordinate error based on 3 decimal-place precision of coordinates,,,,,1,,ND | 0 | 1,Queensland,,,,,,,,,,,,,,,,,,,,,,,,,,,,,,,,,,,,,,,,,,,,https://n2t.net/ark:/21547/DsN20f2a8ae2b48ef1e30684f881d1053d04,release2,300,
Australia,Cradle Mtn Hansons,2005,0f4e01b38de9634b3b8dd6e9c53c986e,"Obendorf, David - davidobendorf[at]tassie.net.auMurray, Kris - k.murray1[at]uq.edu.au",,,,Australasia,,,,300262,,-41.66773,145.96814,,,,,,,,,,,,,,970,,,,,Decimal degrees,,,,970,,,ND | 0 | 1,Tasmania,,,,,,,,,,,,,,,,,,,,,,,,,,,,,,,,,,,,,,,,,,,,https://n2t.net/ark:/21547/DsB20f4e01b38de9634b3b8dd6e9c53c986e,release1,300,
Australia,Epping Forest National Park site 2,2016,0f828805485114a6c9b2ef8158b0b8bb,"Catullo, Renee - renee.catullo[at]gmail.com",,,,Australasia,,,3,300970,,-22.351,146.715,,,,,,,,,,,,,,,,,110,,Decimal degrees; coordinate error based on 3 decimal-place precision of coordinates,,,,,2,,ND | 0 | 2,Queensland,,,,,,,,,,,,,,,,,,,,,,,,,,,,,,,,,,,,,,,,,,,,https://n2t.net/ark:/21547/DsN20f828805485114a6c9b2ef8158b0b8bb,release2,300,
Australia,"Kirrama Bridge 1, Murray Upper National Park",2005,0fd5820c94ee7d42a0e5bb8e093e5d27,"Woodhams, Douglas C - dwoodhams[at]gmail.com",,,,Australasia,,,,300910,,-18.203056,145.883333,,,,,,,,,,,,,,100,,,,,"DMS, converted",,,,100,9,,D | 1 | 1,Queensland,,,,,,,,,,,,,,,,,,,,,,,,,,,,,,,,,,,,,,,,,,,,https://n2t.net/ark:/21547/DsB20fd5820c94ee7d42a0e5bb8e093e5d27,release1,300,
Australia,Collinsville - Bowen Road,2002,100bafef8e8fb0495154bfbf7f94c985,"Murray, Kris A - k.murray1[at]uq.edu.au",,,,Australasia,,,,300712,,-20.21944,147.97917,,,,,,,,,,,,,,184,,,,,Decimal degrees,,,,184,,,ND | 0 | 2,Queensland,,,,,,,,,,,,,,,,,,,,,,,,,,,,,,,,,,,,,,,,,,,,https://n2t.net/ark:/21547/DsB2100bafef8e8fb0495154bfbf7f94c985,release1,300,
Australia,Glen Gordon Stn,2002,1016c2b0f14d95a757f8e4262bad21e2,"Murray, Kris A - k.murray1[at]uq.edu.au",,,,Australasia,,,,300768,,-17.75611,145.37083,,,,,,,,,,,,,,793,,,,,Decimal degrees,,,,793,,,ND | 0 | 2,Queensland,,,,,,,,,,,,,,,,,,,,,,,,,,,,,,,,,,,,,,,,,,,,https://n2t.net/ark:/21547/DsB21016c2b0f14d95a757f8e4262bad21e2,release1,300,
Australia,"Nandroya Falls, Palmerston NP, Qld",2000,105df7e7996284bbb94784f50d02533b,"Murray, Kris A - k.murray1[at]uq.edu.au",,,,Australasia,,,,300787,,-17.59889,145.75639,,,,,,,,,,,,,,326,,,,,Decimal degrees,,,,326,,,D | 2 | 3,Queensland,,,,,,,,,,,,,,,,,,,,,,,,,,,,,,,,,,,,,,,,,,,,https://n2t.net/ark:/21547/DsB2105df7e7996284bbb94784f50d02533b,release1,300,
Australia,"Windin Creek east, nr Butcher's Creek, NQ",2000,10744b8525a5fab561519989b7f1934c,"Murray, Kris A - k.murray1[at]uq.edu.au",,,,Australasia,,,,300806,,-17.37484,145.73067,,,,,,,,,,,,,,673,,,,,Decimal degrees,,,,673,,,ND | 0 | 3,Queensland,,,,,,,,,,,,,,,,,,,,,,,,,,,,,,,,,,,,,,,,,,,,https://n2t.net/ark:/21547/DsB210744b8525a5fab561519989b7f1934c,release1,300,
Australia,"Barkers Creek, Bunya Mtns N.P., SEQ",1999,1077a57fd558843455bd618b85525f0a,"Murray, Kris A - k.murray1[at]uq.edu.au",,,,Australasia,,,,300643,,-26.86877,151.58058,,,,,,,,,,,,,,931,,,,,Decimal degrees,,,,931,,,ND | 0 | 2,Queensland,,,,,,,,,,,,,,,,,,,,,,,,,,,,,,,,,,,,,,,,,,,,https://n2t.net/ark:/21547/DsB21077a57fd558843455bd618b85525f0a,release1,300,
Australia,South Gap Creek,2000,10e873ae360ccd9e7de60d888b139de4,"Murray, Kris A - k.murray1[at]uq.edu.au",,,,Australasia,,,,300845,,-15.80972,145.31667,,,,,,,,,,,,,,282,,,,,Decimal degrees,,,,282,,,D | 1 | 4,Queensland,,,,,,,,,,,,,,,,,,,,,,,,,,,,,,,,,,,,,,,,,,,,https://n2t.net/ark:/21547/DsB210e873ae360ccd9e7de60d888b139de4,release1,300,
Australia,"Borallen point, Qld",1997,10f271dd7977f4ceb5476d0eaa9c7993,"Murray, Kris A - k.murray1[at]uq.edu.au",,,,Australasia,,,,300612,,-27.57821,152.85006,,,,,,,,,,,,,,61,,,,,Decimal degrees,,,,61,,,D | 1 | 1,Queensland,,,,,,,,,,,,,,,,,,,,,,,,,,,,,,,,,,,,,,,,,,,,https://n2t.net/ark:/21547/DsB210f271dd7977f4ceb5476d0eaa9c7993,release1,300,
Australia,"Paluma, site Pal",2004,11215eb765f90cf736a02b3b6f9d202a,"Hauselberger, Kim - kim.hauselberger[at]my.jcu.edu.au",,,,Australasia,,,,300907,,-19.007,146.207167,,,,,,,,,,,,,,900,,,,,"DMS, converted",,,,900,9,,ND | 0 | 2,Queensland,,,,,,,,,,,,,,,,,,,,,,,,,,,,,,,,,,,,,,,,,,,,https://n2t.net/ark:/21547/DsB211215eb765f90cf736a02b3b6f9d202a,release1,300,
Australia,"Baw Baw Plateau (Mt. Baw Baw), Village Flat",2006,113eebc9992118b6ae9dff6c31f39d28,See reference,,,,Australasia,,,10,301063,,-37.842685,146.268833,,,,,,,,,,,,,,,,,,,"Google Earth, Mapcarta, based on location name",,,,,10,,ND | 0 | 1,Victoria,,,,,,,,,,,,,,,,,,,,,,,,,,,,,,,,,,,,,,,,,,,,https://n2t.net/ark:/21547/DsN2113eebc9992118b6ae9dff6c31f39d28,release2,300,
Australia,"K39 pond near industrial area, Kooragang Island",2006,119994054eae6176a3384f333c41c36d,"Stockwell, Michelle P - michelle.stockwell[at]newcastle.edu.au",,,,Australasia,,,11,301024,,-32.875785,151.746988,,,,,,,,,,,,,,,,,,,"Google Earth, NSW topo maps",,,,,11,,D | 2 | 2,New South Wales,,,,,,,,,,,,,,,,,,,,,,,,,,,,,,,,,,,,,,,,,,,,https://n2t.net/ark:/21547/DsN2119994054eae6176a3384f333c41c36d,release2,300,
Australia,17 KM NNE Northcliffe,1985,11df24b3544ce9eb1b22a03dc41deb45,"Murray, Kris A - k.murray1[at]uq.edu.au",,,,Australasia,,,,300369,,-34.51667,116.23333,,,,,,,,,,,,,,116,,,,,Decimal degrees,,,,116,,,ND | 0 | 1,Western Australia,,,,,,,,,,,,,,,,,,,,,,,,,,,,,,,,,,,,,,,,,,,,https://n2t.net/ark:/21547/DsB211df24b3544ce9eb1b22a03dc41deb45,release1,300,
Australia,"Kiandra, Kosciuszko National Park",2013,126e36afa3b6051f0ea1162dd577c2e2,"Scheele, Ben - ben.scheele[at]anu.edu.au",,,,Australasia,,,,301013,,-35.860833,148.495833,,,,,,,,,,,,,,1364,,,,,"DMS, converted",,,,,1,,D | 1 | 1,New South Wales,,,,,,,,,,,,,,,,,,,,,,,,,,,,,,,,,,,,,,,,,,,,https://n2t.net/ark:/21547/DsN2126e36afa3b6051f0ea1162dd577c2e2,release2,300,
Australia,"Massey Creek, nr Ravenshoe, Qld",1999,130ff5cecd61c0548498611da5a13c49,"Murray, Kris A - k.murray1[at]uq.edu.au",,,,Australasia,,,,300784,,-17.61056,145.55972,,,,,,,,,,,,,,978,,,,,Decimal degrees,,,,978,,,D | 1 | 2,Queensland,,,,,,,,,,,,,,,,,,,,,,,,,,,,,,,,,,,,,,,,,,,,https://n2t.net/ark:/21547/DsB2130ff5cecd61c0548498611da5a13c49,release1,300,
Australia,"Herdsman Lake, Perth",1992,135a8d931ef52fdd84b59d95ca2ea844,"Murray, Kris A - k.murray1[at]uq.edu.au",,,,Australasia,,,,300479,,-31.93333,115.8,,,,,,,,,,,,,,22,,,,,Decimal degrees,,,,22,,,ND | 0 | 1,Western Australia,,,,,,,,,,,,,,,,,,,,,,,,,,,,,,,,,,,,,,,,,,,,https://n2t.net/ark:/21547/DsB2135a8d931ef52fdd84b59d95ca2ea844,release1,300,
Australia,"Moggill Road, at Moggill Ferry on north side of river, south-east Queensland.",2005,136540c5ee574bcaa797f7aa1b15c9e7,"Murray, Kris A - k.murray1[at]uq.edu.au",,,,Australasia,,,,300608,,-27.595,152.8575,,,,,,,,,,,,,,58,,,,,Decimal degrees,,,,58,,,ND | 0 | 1,Queensland,,,,,,,,,,,,,,,,,,,,,,,,,,,,,,,,,,,,,,,,,,,,https://n2t.net/ark:/21547/DsB2136540c5ee574bcaa797f7aa1b15c9e7,release1,300,
Australia,"Mena Creek, site AU2",2004,136a9b2387a2e6259ba6c58e7ef95591,"Hauselberger, Kim - kim.hauselberger[at]my.jcu.edu.au",,,,Australasia,,,,300915,,-17.666833,145.876667,,,,,,,,,,,,,,200,,,,,"DMS, converted",,,,200,9,,ND | 0 | 2,Queensland,,,,,,,,,,,,,,,,,,,,,,,,,,,,,,,,,,,,,,,,,,,,https://n2t.net/ark:/21547/DsB2136a9b2387a2e6259ba6c58e7ef95591,release1,300,
Australia,"Devils Peak, Brindabella NP",2006,1385d741d0081471d6fc4350922fd837,"Hunter, David - david.hunter[at]environment.nsw.gov.au",,,,Australasia,,,,300335,,-35.2715,148.82948,,,,,,,,,,,,,,702,,,,,Decimal degrees,,,,702,,,D | 1 | 2,New South Wales,,,,,,,,,,,,,,,,,,,,,,,,,,,,,,,,,,,,,,,,,,,,https://n2t.net/ark:/21547/DsB21385d741d0081471d6fc4350922fd837,release1,300,
Australia,Witchcliffe,1999,13a791f367fcbafd0748e2d9ffd2f020,"Murray, Kris A - k.murray1[at]uq.edu.au",,,,Australasia,,,,300395,,-34.01667,115.08333,,,,,,,,,,,,,,13,,,,,Decimal degrees,,,,13,,,ND | 0 | 1,Western Australia,,,,,,,,,,,,,,,,,,,,,,,,,,,,,,,,,,,,,,,,,,,,https://n2t.net/ark:/21547/DsB213a791f367fcbafd0748e2d9ffd2f020,release1,300,
Australia,"Peter's Creek, Mary River catchment",2004,13b6323b36efc0b9cd02508d59504247,"Kriger, Kerry M - kerry[at]savethefrogs.com",,,,Australasia,,,,300662,,-26.681111,152.606111,,,,,,,,,,,,,,475,,,,,"DMS, converted",,,,475,,,D | 2 | 2,Queensland,,,,,,,,,,,,,,,,,,,,,,,,,,,,,,,,,,,,,,,,,,,,https://n2t.net/ark:/21547/DsB213b6323b36efc0b9cd02508d59504247,release1,300,
Australia,"Ogilvies Dam, Kosciuszko National Park",2013,13e03ce9049a6d81e35660b43b5e7f05,"Brannelly, Laura - laura.brannelly[at]my.jcu.edu.au",,,,Australasia,,,,301010,,-35.958,148.401,,,,,,,,,,,,,,1382,,,110,,Decimal degrees; coordinate error based on 3 decimal-place precision of coordinates,,,,,9,,D | 1 | 1,New South Wales,,,,,,,,,,,,,,,,,,,,,,,,,,,,,,,,,,,,,,,,,,,,https://n2t.net/ark:/21547/DsN213e03ce9049a6d81e35660b43b5e7f05,release2,300,
Australia,"Westgid Creek, near Bellenden Ker, NQ",2001,144d88dafb692be7982333f6c49e1c90,"Murray, Kris A - k.murray1[at]uq.edu.au",,,,Australasia,,,,300815,,-17.26988,145.90118,,,,,,,,,,,,,,185,,,,,Decimal degrees,,,,185,,,D | 1 | 2,Queensland,,,,,,,,,,,,,,,,,,,,,,,,,,,,,,,,,,,,,,,,,,,,https://n2t.net/ark:/21547/DsB2144d88dafb692be7982333f6c49e1c90,release1,300,
Australia,Hartz Mt6,2006,144ef23c3567e9106069d461f8faeb95,"Driessen, Michael M - michael.driessen[at]dpipwe.tas.gov.au",,,,Australasia,,,,300188,,-43.22453,146.77401,,,,,,,,,,,,,,645,,,,,Decimal degrees,,,,645,,,ND | <unk> | <unk>,Tasmania,,,,,,,,,,,,,,,,,,,,,,,,,,,,,,,,,,,,,,,,,,,,https://n2t.net/ark:/21547/DsB2144ef23c3567e9106069d461f8faeb95,release1,300,
Australia,"Mundora Creek, Nerang River catchment",2006,147703029efe97bb089b9f084b446476,"Kriger, Kerry M - kerry[at]savethefrogs.com",,,,Australasia,,,,300574,,-28.223889,153.285,,,,,,,,,,,,,,790,,,,,"DMS, converted",,,,790,,,D | 2 | 2,Queensland,,,,,,,,,,,,,,,,,,,,,,,,,,,,,,,,,,,,,,,,,,,,https://n2t.net/ark:/21547/DsB2147703029efe97bb089b9f084b446476,release1,300,
Australia,"Snakey Plain, Kosciuszko NP",1998,1478c290e5670e13393bd003a4f87afc,"Murray, Kris A - k.murray1[at]uq.edu.au",,,,Australasia,,,,300311,,-36.09582,148.2386,,,,,,,,,,,,,,1356,,,,,Decimal degrees,,,,1356,,,D | 1 | 1,New South Wales,,,,,,,,,,,,,,,,,,,,,,,,,,,,,,,,,,,,,,,,,,,,https://n2t.net/ark:/21547/DsB21478c290e5670e13393bd003a4f87afc,release1,300,
Australia,"Windsor Tableland, Queensland",1993,14dee8cad4acef6e723df27c4cf70ee8,"Berger, Lee - Lee.Berger[at]dah.csiro.au",,,,Australasia,,,,300050,,-16.217,145.033,,,,,,,,,,,,,,1127,,,,,Decimal degrees,,,,1127,,,D | 1 | 1,Queensland,,,,,,,,,,,,,,,,,,,,,,,,,,,,,,,,,,,,,,,,,,,,https://n2t.net/ark:/21547/DsB214dee8cad4acef6e723df27c4cf70ee8,release1,300,
Australia,"Dave's Creek, Nerang River catchment",2005,1551f4fd8e74a465f2adb49c51015b2d,"Kriger, Kerry M - kerry[at]savethefrogs.com",,,,Australasia,,,,300570,,-28.225,153.223056,,,,,,,,,,,,,,235,,,,,"DMS, converted",,,,235,,,D | 2 | 2,Queensland,,,,,,,,,,,,,,,,,,,,,,,,,,,,,,,,,,,,,,,,,,,,https://n2t.net/ark:/21547/DsB21551f4fd8e74a465f2adb49c51015b2d,release1,300,
Australia,"Natural Bridge, Nerang River catchment",2005,155f41b6e4ca2cba80e7a563a82347f2,"Kriger, Kerry M - kerry[at]savethefrogs.com",,,,Australasia,,,,300567,,-28.233056,153.241944,,,,,,,,,,,,,,270,,,,,"DMS, converted",,,,270,,,D | 2 | 2,Queensland,,,,,,,,,,,,,,,,,,,,,,,,,,,,,,,,,,,,,,,,,,,,https://n2t.net/ark:/21547/DsB2155f41b6e4ca2cba80e7a563a82347f2,release1,300,
Australia,Spurgeon Wet,2009,1595e37617a4475886e557d4584753c5,"Murray, Kris A - k.murray1[at]uq.edu.au",,,,Australasia,,,,300837,,-16.45287,145.18345,,,,,,,,,,,,,,1066,,,,,Decimal degrees,,,,1066,,,D | 3 | <unk>,Queensland,,,,,,,,,,,,,,,,,,,,,,,,,,,,,,,,,,,,,,,,,,,,https://n2t.net/ark:/21547/DsB21595e37617a4475886e557d4584753c5,release1,300,
Australia,Denmark,2009,15adc4baf5b0ef1e40cd5014498eb2c2,"Murray, Kris A - k.murray1[at]uq.edu.au",,,,Australasia,,,,300346,,-34.95,117.35,,,,,,,,,,,,,,9,,,,,Decimal degrees,,,,9,,,ND | 0 | 1,Western Australia,,,,,,,,,,,,,,,,,,,,,,,,,,,,,,,,,,,,,,,,,,,,https://n2t.net/ark:/21547/DsB215adc4baf5b0ef1e40cd5014498eb2c2,release1,300,
Australia,Mount Misery,2004,15b63a61a3ff36d1f6ba7a25dfedb8c9,"Murray, Kris A - k.murray1[at]uq.edu.au",,,,Australasia,,,,300843,,-15.88972,145.21,,,,,,,,,,,,,,491,,,,,Decimal degrees,,,,491,,,D | 3 | 4,Queensland,,,,,,,,,,,,,,,,,,,,,,,,,,,,,,,,,,,,,,,,,,,,https://n2t.net/ark:/21547/DsB215b63a61a3ff36d1f6ba7a25dfedb8c9,release1,300,
Australia,"Sponar's Creek, Kosciuszko National Park",2013,15ba23f15e6ca378693440720bd4bbe6,"Brannelly, Laura - laura.brannelly[at]my.jcu.edu.au",,,,Australasia,,,9,301001,,-36.359,148.5,,,,,,,,,,,,,,1515,,,,,"DMS, converted",,,,,10,,D | 2 | 2,New South Wales,,,,,,,,,,,,,,,,,,,,,,,,,,,,,,,,,,,,,,,,,,,,https://n2t.net/ark:/21547/DsN215ba23f15e6ca378693440720bd4bbe6,release2,300,
Australia,30KM ENE Northcliffe,1999,165a549a200067233c478e1a918711cb,"Murray, Kris A - k.murray1[at]uq.edu.au",,,,Australasia,,,,300368,,-34.53333,116.41667,,,,,,,,,,,,,,198,,,,,Decimal degrees,,,,198,,,D | 1 | 1,Western Australia,,,,,,,,,,,,,,,,,,,,,,,,,,,,,,,,,,,,,,,,,,,,https://n2t.net/ark:/21547/DsB2165a549a200067233c478e1a918711cb,release1,300,
Australia,Twenty Mile Creek,2016,16c925b0ca974f1f0b26926c719b307e,"Catullo, Renee - renee.catullo[at]gmail.com",,,,Australasia,,,17,300982,,-17.898,141.244,,,,,,,,,,,,,,,,,110,,Decimal degrees; coordinate error based on 3 decimal-place precision of coordinates,,,,,1,,ND | 0 | 3,Queensland,,,,,,,,,,,,,,,,,,,,,,,,,,,,,,,,,,,,,,,,,,,,https://n2t.net/ark:/21547/DsN216c925b0ca974f1f0b26926c719b307e,release2,300,
Australia,"Rockhampton, Queensland",1997,16d3f84b1d950a03690e1b37b1c34dc7,"Berger, Lee - Lee.Berger[at]dah.csiro.au",,,,Australasia,,,,300040,,-23.378,150.514,,,,,,,,,,,,,,15,,,,,Decimal degrees,,,,15,,,D | 1 | 1,Queensland,,,,,,,,,,,,,,,,,,,,,,,,,,,,,,,,,,,,,,,,,,,,https://n2t.net/ark:/21547/DsB216d3f84b1d950a03690e1b37b1c34dc7,release1,300,
Australia,"Purling Brook - road crossing, Nerang River catchment",2004,1720f630a0457589be0664b2a7e443f3,"Kriger, Kerry M - kerry[at]savethefrogs.com",,,,Australasia,,,,300583,,-28.195,153.271944,,,,,,,,,,,,,,590,,,,,"DMS, converted",,,,590,,,D | 2 | 2,Queensland,,,,,,,,,,,,,,,,,,,,,,,,,,,,,,,,,,,,,,,,,,,,https://n2t.net/ark:/21547/DsB21720f630a0457589be0664b2a7e443f3,release1,300,
Australia,"Lake Mountain, Marysville, Site L10, Royston",2009,178aa6e84c580b0bd946fa79cfdf734c,See reference,,,,Australasia,,,,301083,,-37.478455,145.875092,,,,,,,,,,,,,,,,,,,"publication map, Google Earth",,,,,,,D | 1 | <unk>,Victoria,,,,,,,,,,,,,,,,,,,,,,,,,,,,,,,,,,,,,,,,,,,,https://n2t.net/ark:/21547/DsN2178aa6e84c580b0bd946fa79cfdf734c,release2,300,
Australia,Augusta,2008,17e378aeb7dc430071a52b68fb53229d,"Roberts, Dale - dale.roberts[at]uwa.edu.au",,,,Australasia,,,29,301112,,-34.3025,115.1497,,,,,,,,,,,,,,,,,,,Decimal degrees,,,,,7,,D | 1 | 1,Western Australia,,,,,,,,,,,,,,,,,,,,,,,,,,,,,,,,,,,,,,,,,,,,https://n2t.net/ark:/21547/DsN217e378aeb7dc430071a52b68fb53229d,release2,300,
Australia,Mount Lewis 16.2 km,1998,1826ca00b23d94d2fad778daa3749ae9,"Murray, Kris A - k.murray1[at]uq.edu.au",,,,Australasia,,,,300831,,-16.57361,145.26833,,,,,,,,,,,,,,970,,,,,Decimal degrees,,,,970,,,ND | 0 | 1,Queensland,,,,,,,,,,,,,,,,,,,,,,,,,,,,,,,,,,,,,,,,,,,,https://n2t.net/ark:/21547/DsB21826ca00b23d94d2fad778daa3749ae9,release1,300,
Australia,"Big Tableland IMS, Qld",2000,183e35101f71f306527f92699ca487d0,"Murray, Kris A - k.murray1[at]uq.edu.au",,,,Australasia,,,,300000,,-15.71389,145.27333,,,,,,,,,,,,,,613,,,,,Decimal degrees,,,,613,,,D | 4 | 6,Queensland,,,,,,,,,,,,,,,,,,,,,,,,,,,,,,,,,,,,,,,,,,,,https://n2t.net/ark:/21547/DsB2183e35101f71f306527f92699ca487d0,release1,300,
Australia,Sydney Olympic Park/Narawang Wetlands/Kronos Hill/Wentworth Common Precinct,2013,18557a47d1ec6efc6f47d2a23af83d7c,"Stockwell, Michelle P - michelle.stockwell[at]newcastle.edu.au",,,,Australasia,,,,301023,,-33.833333,151.066667,,,,,,,,,,,,,,,,,,,"DMS, converted",,,,,,,D | 1 | 1,New South Wales,,,,,,,,,,,,,,,,,,,,,,,,,,,,,,,,,,,,,,,,,,,,https://n2t.net/ark:/21547/DsN218557a47d1ec6efc6f47d2a23af83d7c,release2,300,
Australia,"Byron Creek at crossing of Byron Creek Road, Mount Mee Forest Reserve, south-east Queensland.",2000,185ea9ed59c4a6a915983a06911207c6,"Murray, Kris A - k.murray1[at]uq.edu.au",,,,Australasia,,,,300637,,-27.1441,152.71007,,,,,,,,,,,,,,300,,,,,Decimal degrees,,,,300,,,ND | 0 | 3,Queensland,,,,,,,,,,,,,,,,,,,,,,,,,,,,,,,,,,,,,,,,,,,,https://n2t.net/ark:/21547/DsB2185ea9ed59c4a6a915983a06911207c6,release1,300,
Australia,"Tim's Thicket, Mandurah",1993,1894800cf20b786f3202df14cd592937,"Murray, Kris A - k.murray1[at]uq.edu.au",,,,Australasia,,,,300434,,-32.83333,115.65,,,,,,,,,,,,,,27,,,,,Decimal degrees,,,,27,,,D | 2 | 3,Western Australia,,,,,,,,,,,,,,,,,,,,,,,,,,,,,,,,,,,,,,,,,,,,https://n2t.net/ark:/21547/DsB21894800cf20b786f3202df14cd592937,release1,300,
Australia,pond near Laura River,2016,18c8605d6429ecc31c41a76822197681,"Catullo, Renee - renee.catullo[at]gmail.com",,,,Australasia,,,26,300992,,-15.673,144.587,,,,,,,,,,,,,,,,,110,,Decimal degrees; coordinate error based on 3 decimal-place precision of coordinates,,,,,1,,ND | 0 | 1,Queensland,,,,,,,,,,,,,,,,,,,,,,,,,,,,,,,,,,,,,,,,,,,,https://n2t.net/ark:/21547/DsN218c8605d6429ecc31c41a76822197681,release2,300,
Australia,"Mobong Falls, nr Dorrigo, NSW",1998,18dc8d1b8381151efd2d994d263ffd8c,"Murray, Kris A - k.murray1[at]uq.edu.au",,,,Australasia,,,,300528,,-30.165,152.785,,,,,,,,,,,,,,296,,,,,Decimal degrees,,,,296,,,D | 1 | 1,New South Wales,,,,,,,,,,,,,,,,,,,,,,,,,,,,,,,,,,,,,,,,,,,,https://n2t.net/ark:/21547/DsB218dc8d1b8381151efd2d994d263ffd8c,release1,300,
Australia,"Bogong Creek, Victoria",1996,191452e2325c57ad0ea87451b1be5483,"Berger, Lee - Lee.Berger[at]dah.csiro.au",,,,Australasia,,,,300014,,-36.25791,148.25562,,,,,,,,,,,,,,613,,,,,Decimal degrees,,,,613,,,D | 1 | 1,Victoria,,,,,,,,,,,,,,,,,,,,,,,,,,,,,,,,,,,,,,,,,,,,https://n2t.net/ark:/21547/DsB2191452e2325c57ad0ea87451b1be5483,release1,300,
Australia,Mt Tamborine,2009,191f9567db6d6656695860b6109932a3,"Murray, Kris A - k.murray1[at]uq.edu.au",,,,Australasia,,,,300600,,-27.97,153.199,,,,,,,,,,,,,,289,,,,,Decimal degrees,,,,289,,,ND | 0 | 1,Queensland,,,,,,,,,,,,,,,,,,,,,,,,,,,,,,,,,,,,,,,,,,,,https://n2t.net/ark:/21547/DsB2191f9567db6d6656695860b6109932a3,release1,300,
Australia,"Kosciuszko, Brindabella, and Namadgi National Parks and Micalong State Forest",2012,1921b2c8a5f08dd4b6faecd2afadbd1e,"Scheele, Ben - ben.scheele[at]anu.edu.au",,,,Australasia,,,,930003,,-35.470626,148.640859,,,,,,,,,,,,,,,,,,,Species record NOT FOR GEOSPATIAL ANALYSIS; coordinate center of area of 4 parks,,,,,,,NA | NA | NA,New South Wales/Australian Capital Territory,,,,,,,,,,,,,,,,,,,,,,,,,,,,,,,,,,,,,,,,,,,,https://n2t.net/ark:/21547/DsN21921b2c8a5f08dd4b6faecd2afadbd1e,release2,300,
Australia,"Wongai State Forest, SEQ",1998,192aa862f80932dd5a4a1447381342a0,"Murray, Kris A - k.murray1[at]uq.edu.au",,,,Australasia,,,,300674,,-25.417,152.533,,,,,,,,,,,,,,74,,,,,Decimal degrees,,,,74,,,ND | 0 | 1,Queensland,,,,,,,,,,,,,,,,,,,,,,,,,,,,,,,,,,,,,,,,,,,,https://n2t.net/ark:/21547/DsB2192aa862f80932dd5a4a1447381342a0,release1,300,
Australia,"Southern branch Kroombit Creek, above junction with north branch, Kroombit Tops National Park, south-west of Gladstone, south-east Queensland.",2005,192e9ea428372c33f18fd6a946a738f5,"Murray, Kris A - k.murray1[at]uq.edu.au",,,,Australasia,,,,300686,,-24.38611,151.00639,,,,,,,,,,,,,,576,,,,,Decimal degrees,,,,576,,,D | 1 | 2,Queensland,,,,,,,,,,,,,,,,,,,,,,,,,,,,,,,,,,,,,,,,,,,,https://n2t.net/ark:/21547/DsB2192e9ea428372c33f18fd6a946a738f5,release1,300,
Australia,"Thagoona, Qld",1997,1963b326d0ac62cc04c53f49cfa15a84,"Murray, Kris A - k.murray1[at]uq.edu.au",,,,Australasia,,,,300607,,-27.61667,152.61667,,,,,,,,,,,,,,172,,,,,Decimal degrees,,,,172,,,D | 1 | 1,Queensland,,,,,,,,,,,,,,,,,,,,,,,,,,,,,,,,,,,,,,,,,,,,https://n2t.net/ark:/21547/DsB21963b326d0ac62cc04c53f49cfa15a84,release1,300,
Australia,"Swan Bay, northern coast of NSW",2012,197a097058340cf48fc97871570cc1e9,"Lettoof, Damian - damian.lettoof[at]sydney.edu.au",,,,Australasia,,,,301036,,-29.127279,153.277681,,,,,,,,,,,,,,,,,,,"UTM coordinates, converted",,,,,10,,ND | 0 | 2,New South Wales,,,,,,,,,,,,,,,,,,,,,,,,,,,,,,,,,,,,,,,,,,,,https://n2t.net/ark:/21547/DsN2197a097058340cf48fc97871570cc1e9,release2,300,
Australia,"Piper's Creek, Kosciuszko National Park",2013,19a7a8caff4bd9b74461a11ba8617ddf,"Brannelly, Laura - laura.brannelly[at]my.jcu.edu.au",,,,Australasia,,,,300999,,-36.372,148.452,,,,,,,,,,,,,,1543,,,110,,Decimal degrees; coordinate error based on 3 decimal-place precision of coordinates,,,,,9,,D | 2 | 2,New South Wales,,,,,,,,,,,,,,,,,,,,,,,,,,,,,,,,,,,,,,,,,,,,https://n2t.net/ark:/21547/DsN219a7a8caff4bd9b74461a11ba8617ddf,release2,300,
Australia,1.5 KM SE Yallingup,1999,19f5d96f5982e30082c9919fb62a3bb5,"Murray, Kris A - k.murray1[at]uq.edu.au",,,,Australasia,,,,300420,,-33.66667,115.01667,,,,,,,,,,,,,,7,,,,,Decimal degrees,,,,7,,,D | 2 | 2,Western Australia,,,,,,,,,,,,,,,,,,,,,,,,,,,,,,,,,,,,,,,,,,,,https://n2t.net/ark:/21547/DsB219f5d96f5982e30082c9919fb62a3bb5,release1,300,
Australia,"Railway Av, Endeavour Valley",2003,1a4fafae98bc69d752f8028d9fe8a156,"Murray, Kris A - k.murray1[at]uq.edu.au",,,,Australasia,,,,300858,,-15.44111,145.13028,,,,,,,,,,,,,,38,,,,,Decimal degrees,,,,38,,,ND | 0 | 1,Queensland,,,,,,,,,,,,,,,,,,,,,,,,,,,,,,,,,,,,,,,,,,,,https://n2t.net/ark:/21547/DsB21a4fafae98bc69d752f8028d9fe8a156,release1,300,
Australia,Buderim,1999,1a56058b7adfa14c413116ff39be9035,"Berger, Lee - Lee.Berger[at]dah.csiro.au",,,,Australasia,,,,300166,,-26.69449,153.0435,,,,,,,,,,,,,,61,,,,,Decimal degrees,,,,61,,,D | 1 | 1,Queensland,,,,,,,,,,,,,,,,,,,,,,,,,,,,,,,,,,,,,,,,,,,,https://n2t.net/ark:/21547/DsB21a56058b7adfa14c413116ff39be9035,release1,300,
Australia,Fong On Bay Rd junction,2007,1ab32b129059e3fe487d59b09b6fcfe7,"Murray, Kris A - k.murray1[at]uq.edu.au",,,,Australasia,,,,300818,,-17.16417,145.62278,,,,,,,,,,,,,,696,,,,,Decimal degrees,,,,696,,,ND | 0 | 1,Queensland,,,,,,,,,,,,,,,,,,,,,,,,,,,,,,,,,,,,,,,,,,,,https://n2t.net/ark:/21547/DsB21ab32b129059e3fe487d59b09b6fcfe7,release1,300,
Australia,"200-m transect along creek from Bridge 7, Murray Upper National Park (Kirrama)",2007,1ac4013e4f663a61240c36939c259107,"Grogan, Laura F - laura.f.grogan[at]gmail.com",,,,Australasia,,,,300911,,-18.183333,145.866667,,,,,,,,,,,,,,206,,,,,"DMS, converted",,,,206,,,D | 1 | 1,Queensland,,,,,,,,,,,,,,,,,,,,,,,,,,,,,,,,,,,,,,,,,,,,https://n2t.net/ark:/21547/DsB21ac4013e4f663a61240c36939c259107,release1,300,
Australia,Cradle Mtn Kitchen,2005,1ac479f40c3cf49c2013d3ace36c7efc,"Obendorf, David - davidobendorf[at]tassie.net.auMurray, Kris - k.murray1[at]uq.edu.au",,,,Australasia,,,,300261,,-41.67561,145.94278,,,,,,,,,,,,,,1280,,,,,Decimal degrees,,,,1280,,,D | 1 | 1,Tasmania,,,,,,,,,,,,,,,,,,,,,,,,,,,,,,,,,,,,,,,,,,,,https://n2t.net/ark:/21547/DsB21ac479f40c3cf49c2013d3ace36c7efc,release1,300,
Australia,Mount Lewis 16.2 km,2001,1b5a179cb9796895971a14e1b12252db,"Murray, Kris A - k.murray1[at]uq.edu.au",,,,Australasia,,,,300831,,-16.57361,145.26833,,,,,,,,,,,,,,970,,,,,Decimal degrees,,,,970,,,ND | 0 | 1,Queensland,,,,,,,,,,,,,,,,,,,,,,,,,,,,,,,,,,,,,,,,,,,,https://n2t.net/ark:/21547/DsB21b5a179cb9796895971a14e1b12252db,release1,300,
Australia,5 KM S of Margaret River,1992,1b90bbb3820eff80ab8939f1125986ae,"Murray, Kris A - k.murray1[at]uq.edu.au",,,,Australasia,,,,300399,,-33.98333,115.11667,,,,,,,,,,,,,,13,,,,,Decimal degrees,,,,13,,,D | 1 | 2,Western Australia,,,,,,,,,,,,,,,,,,,,,,,,,,,,,,,,,,,,,,,,,,,,https://n2t.net/ark:/21547/DsB21b90bbb3820eff80ab8939f1125986ae,release1,300,
Australia,Tully Gorge National Park,2005,1b989773167ce05df8f79096296febe0,"Grogan, Laura - l.grogan[at]griffith.edu",,,,Australasia,,,9,301057,,-17.766667,145.633333,,,,,,,,,,,,,,,,,,,"DMS, converted",,,,,11,,D | 1 | 1,Queensland,,,,,,,,,,,,,,,,,,,,,,,,,,,,,,,,,,,,,,,,,,,,https://n2t.net/ark:/21547/DsN21b989773167ce05df8f79096296febe0,release2,300,
Australia,Nannup,2008,1ba5ec197ab1c5355096621ad623e6a4,"Roberts, Dale - dale.roberts[at]uwa.edu.au",,,,Australasia,,,30,301113,,-34.03361,115.8125,,,,,,,,,,,,,,,,,,,Decimal degrees,,,,,7,,D | 1 | 1,Western Australia,,,,,,,,,,,,,,,,,,,,,,,,,,,,,,,,,,,,,,,,,,,,https://n2t.net/ark:/21547/DsN21ba5ec197ab1c5355096621ad623e6a4,release2,300,
Australia,"Ogilvies Ephemeral site, Kosciuszko National Park",2013,1bb0836cd20e246157ac9d2044d92e49,"Brannelly, Laura - laura.brannelly[at]my.jcu.edu.au",,,,Australasia,,,,301009,,-35.96,148.399,,,,,,,,,,,,,,1331,,,110,,Decimal degrees; coordinate error based on 3 decimal-place precision of coordinates,,,,,9,,D | 1 | 1,New South Wales,,,,,,,,,,,,,,,,,,,,,,,,,,,,,,,,,,,,,,,,,,,,https://n2t.net/ark:/21547/DsN21bb0836cd20e246157ac9d2044d92e49,release2,300,
Australia,"Three Mile dam, Kosciuszko National Park",2013,1bddaaa7bb6f7eff63d5574a7400d4eb,"Scheele, Ben - ben.scheele[at]anu.edu.au",,,,Australasia,,,,301011,,-35.891111,148.449722,,,,,,,,,,,,,,1471,,,,,"DMS, converted",,,,,1,,D | 1 | 1,New South Wales,,,,,,,,,,,,,,,,,,,,,,,,,,,,,,,,,,,,,,,,,,,,https://n2t.net/ark:/21547/DsN21bddaaa7bb6f7eff63d5574a7400d4eb,release2,300,
Australia,1 KM S Witchcliffe,1999,1c1494821721376101e54f16ac0df635,"Murray, Kris A - k.murray1[at]uq.edu.au",,,,Australasia,,,,300390,,-34.03333,115.1,,,,,,,,,,,,,,18,,,,,Decimal degrees,,,,18,,,ND | 0 | 1,Western Australia,,,,,,,,,,,,,,,,,,,,,,,,,,,,,,,,,,,,,,,,,,,,https://n2t.net/ark:/21547/DsB21c1494821721376101e54f16ac0df635,release1,300,
Australia,"Head of north branch of Degail Creek, Kroombit Tops National Park, south-west of Gladstone, south-east Queensland.",2005,1c3a9e627ffccef251642886cbcc8a5c,"Murray, Kris A - k.murray1[at]uq.edu.au",,,,Australasia,,,,300688,,-24.37361,151.03222,,,,,,,,,,,,,,528,,,,,Decimal degrees,,,,528,,,ND | 0 | 1,Queensland,,,,,,,,,,,,,,,,,,,,,,,,,,,,,,,,,,,,,,,,,,,,https://n2t.net/ark:/21547/DsB21c3a9e627ffccef251642886cbcc8a5c,release1,300,
Australia,"Ashendon Rd, Pickering Brook",1993,1c69c1dd1121771283cd138b7827d936,"Murray, Kris A - k.murray1[at]uq.edu.au",,,,Australasia,,,,300459,,-32.05,116.18333,,,,,,,,,,,,,,298,,,,,Decimal degrees,,,,298,,,ND | 0 | 1,Western Australia,,,,,,,,,,,,,,,,,,,,,,,,,,,,,,,,,,,,,,,,,,,,https://n2t.net/ark:/21547/DsB21c69c1dd1121771283cd138b7827d936,release1,300,
Australia,Unknown,2013,1c794cefab81002295c595898c14996d,Laura Brannelly,,,Laura Brannelly,,,,29,,,-35.958,148.401,,,,,,,,,,,,,,,,,30,,,,,,1404,9,,,,,,,,,,,,,,,,,,,,,,,,,,,,,,,,,,,,,,,,,,,,,,,https://n2t.net/ark:/21547/DQT21c794cefab81002295c595898c14996d,zawacki,222,
Australia,Conondale Range,1999,1c821134fd00da5dcc3eeb95d24d5f14,"Murray, Kris A - k.murray1[at]uq.edu.au",,,,Australasia,,,,300645,,-26.833,152.683,,,,,,,,,,,,,,471,,,,,Decimal degrees,,,,471,,,D | 1 | 1,Queensland,,,,,,,,,,,,,,,,,,,,,,,,,,,,,,,,,,,,,,,,,,,,https://n2t.net/ark:/21547/DsB21c821134fd00da5dcc3eeb95d24d5f14,release1,300,
Australia,Waterhouse Pond 2,2005,1d20efe8f1715c41b1c9a151b861b453,"Obendorf, David - davidobendorf[at]tassie.net.auMurray, Kris - k.murray1[at]uq.edu.au",,,,Australasia,,,,300294,,-40.88786,147.63031,,,,,,,,,,,,,,27,,,,,Decimal degrees,,,,27,,,ND | <unk> | <unk>,Tasmania,,,,,,,,,,,,,,,,,,,,,,,,,,,,,,,,,,,,,,,,,,,,https://n2t.net/ark:/21547/DsB21d20efe8f1715c41b1c9a151b861b453,release1,300,
Australia,"Pierces Creek pine forest, Brindabella Range, W of Canberra",1993,1d6ff8a8c0fd0f4a93d7396b3c9d03e8,"Murray, Kris A - k.murray1[at]uq.edu.au",,,,Australasia,,,,300329,,-35.367,148.917,,,,,,,,,,,,,,722,,,,,Decimal degrees,,,,722,,,ND | 0 | 1,Australian Capital Territory,,,,,,,,,,,,,,,,,,,,,,,,,,,,,,,,,,,,,,,,,,,,https://n2t.net/ark:/21547/DsB21d6ff8a8c0fd0f4a93d7396b3c9d03e8,release1,300,
Australia,Ginini North,1997,1dd3909430348ef47533b99d24ea2c30,"Murray, Kris A - k.murray1[at]uq.edu.au",,,,Australasia,,,,300322,,-35.5201,148.78438,,,,,,,,,,,,,,1309,,,,,Decimal degrees,,,,1309,,,ND | 0 | 1,Australian Capital Territory,,,,,,,,,,,,,,,,,,,,,,,,,,,,,,,,,,,,,,,,,,,,https://n2t.net/ark:/21547/DsB21dd3909430348ef47533b99d24ea2c30,release1,300,
Australia,"Big Brook, Western Australia",2010,1de8f9cb1302de5bb834e4bc18a3c585,See reference,,,,Australasia,,,,300163,,-32.8884,116.118,,,,,,,,,,,,,,291,,,,,Decimal degrees,,,,291,,,D | 1 | 1,Western Australia,,,,,,,,,,,,,,,,,,,,,,,,,,,,,,,,,,,,,,,,,,,,https://n2t.net/ark:/21547/DsB21de8f9cb1302de5bb834e4bc18a3c585,release1,300,
Australia,Belmore Creek near Croydon,2016,1df534c2f29877abc76fb84fff3ce668,"Catullo, Renee - renee.catullo[at]gmail.com",,,,Australasia,,,16,300979,,-18.166,142.216,,,,,,,,,,,,,,,,,110,,Decimal degrees; coordinate error based on 3 decimal-place precision of coordinates,,,,,1,,ND | 0 | 1,Queensland,,,,,,,,,,,,,,,,,,,,,,,,,,,,,,,,,,,,,,,,,,,,https://n2t.net/ark:/21547/DsN21df534c2f29877abc76fb84fff3ce668,release2,300,
Australia,"Robertson River site 1, near Cobbold Gorge Nature Reserve",2016,1df90e14d2360faf3d5624983c78a512,"Catullo, Renee - renee.catullo[at]gmail.com",,,,Australasia,,,18,300976,,-18.808,143.402,,,,,,,,,,,,,,,,,110,,Decimal degrees; coordinate error based on 3 decimal-place precision of coordinates,,,,,1,,ND | 0 | 1,Queensland,,,,,,,,,,,,,,,,,,,,,,,,,,,,,,,,,,,,,,,,,,,,https://n2t.net/ark:/21547/DsN21df90e14d2360faf3d5624983c78a512,release2,300,
Australia,Tully Gorge National Park,2007,1e2d7064a789c521385290a333cc86ca,"Grogan, Laura - l.grogan[at]griffith.edu",,,,Australasia,,,24,301057,,-17.766667,145.633333,,,,,,,,,,,,,,,,,,,"DMS, converted",,,,,10,,D | 1 | 1,Queensland,,,,,,,,,,,,,,,,,,,,,,,,,,,,,,,,,,,,,,,,,,,,https://n2t.net/ark:/21547/DsN21e2d7064a789c521385290a333cc86ca,release2,300,
Australia,"Sponar's Creek, Kosciuszko National Park",2013,1e58cdf4c8aa207a4689a3f067c5e1cd,"Brannelly, Laura - laura.brannelly[at]my.jcu.edu.au",,,,Australasia,,,12,301001,,-36.359,148.5,,,,,,,,,,,,,,1515,,,,,"DMS, converted",,,,,11,,D | 2 | 2,New South Wales,,,,,,,,,,,,,,,,,,,,,,,,,,,,,,,,,,,,,,,,,,,,https://n2t.net/ark:/21547/DsN21e58cdf4c8aa207a4689a3f067c5e1cd,release2,300,
Australia,Cape Melville Camp Creek 0,2001,1e86d413f50b3d8d9e90c6e14aa803ea,"Murray, Kris A - k.murray1[at]uq.edu.au",,,,Australasia,,,,300864,,-14.25833,144.46111,,,,,,,,,,,,,,282,,,,,Decimal degrees,,,,282,,,ND | 0 | 1,Queensland,,,,,,,,,,,,,,,,,,,,,,,,,,,,,,,,,,,,,,,,,,,,https://n2t.net/ark:/21547/DsB21e86d413f50b3d8d9e90c6e14aa803ea,release1,300,
Australia,"Horsehair Plain, Vic Alps",1999,1f2a0a652ab493ff844233d011242530,"Murray, Kris A - k.murray1[at]uq.edu.au",,,,Australasia,,,,300303,,-37.049,147.331,,,,,,,,,,,,,,1190,,,,,Decimal degrees,,,,1190,,,ND | 0 | 1,Victoria,,,,,,,,,,,,,,,,,,,,,,,,,,,,,,,,,,,,,,,,,,,,https://n2t.net/ark:/21547/DsB21f2a0a652ab493ff844233d011242530,release1,300,
Australia,Unknown,2013,1f2faf83f1af61c1372be5181b3b05e1,Laura Brannelly,,,Laura Brannelly,,,,4,,,-36.359,148.484,,,,,,,,,,,,,,,,,30,,,,,,1519,10,,,,,,,,,,,,,,,,,,,,,,,,,,,,,,,,,,,,,,,,,,,,,,,https://n2t.net/ark:/21547/DQT21f2faf83f1af61c1372be5181b3b05e1,zawacki,222,
Australia,"Narawang Wetland, Sydney Olympic Park, 3 of 7 ponds",2006,1f3830ecbe0b2b5636a209f2799b937a,"Stockwell, Michelle P - michelle.stockwell[at]newcastle.edu.au",,,,Australasia,,,16,301022,,-33.836226,151.063079,,,,,,,,,,,,,,,,,,,"Google Earth, NSW topo maps",,,,,11,,D | 1 | 3,New South Wales,,,,,,,,,,,,,,,,,,,,,,,,,,,,,,,,,,,,,,,,,,,,https://n2t.net/ark:/21547/DsN21f3830ecbe0b2b5636a209f2799b937a,release2,300,
Australia,"Kosciuszko National Park and Micalong State Forest, 16 sites",2012,1f40016243e7c8a4d1d09b74e3c6d529,"Scheele, Ben - ben.scheele[at]anu.edu.au",,,,Australasia,,,,930004,,-35.48686,148.352716,,,,,,,,,,,,,,,,,,,"Species record NOT FOR GEOSPATIAL ANALYSIS; coordinate center of NP, 16 sites",,,,,,,NA | NA | NA,New South Wales,,,,,,,,,,,,,,,,,,,,,,,,,,,,,,,,,,,,,,,,,,,,https://n2t.net/ark:/21547/DsN21f40016243e7c8a4d1d09b74e3c6d529,release2,300,
Australia,"Kerimbilla Creek crossing, Wyaga Road, north-east of Goondiwindi, south-east Queensland.",2005,1f6cd753753178c46be876ff4874b271,"Murray, Kris A - k.murray1[at]uq.edu.au",,,,Australasia,,,,300560,,-28.35194,150.61278,,,,,,,,,,,,,,259,,,,,Decimal degrees,,,,259,,,ND | 0 | 1,Queensland,,,,,,,,,,,,,,,,,,,,,,,,,,,,,,,,,,,,,,,,,,,,https://n2t.net/ark:/21547/DsB21f6cd753753178c46be876ff4874b271,release1,300,
Australia,"Ferndale, Perth, Western Australia",1998,1f7b76737842a2a1071a3e76381149b8,"Berger, Lee - Lee.Berger[at]dah.csiro.au",,,,Australasia,,,,300025,,-32.031,115.924,,,,,,,,,,,,,,75,,,,,Decimal degrees,,,,75,,,D | 1 | 1,Western Australia,,,,,,,,,,,,,,,,,,,,,,,,,,,,,,,,,,,,,,,,,,,,https://n2t.net/ark:/21547/DsB21f7b76737842a2a1071a3e76381149b8,release1,300,
Australia,"Perry Lakes, Perth",1992,1f808a187a679938717d6d948b66c0f2,"Murray, Kris A - k.murray1[at]uq.edu.au",,,,Australasia,,,,300478,,-31.93333,115.78333,,,,,,,,,,,,,,11,,,,,Decimal degrees,,,,11,,,D | 3 | 5,Western Australia,,,,,,,,,,,,,,,,,,,,,,,,,,,,,,,,,,,,,,,,,,,,https://n2t.net/ark:/21547/DsB21f808a187a679938717d6d948b66c0f2,release1,300,
Australia,Unknown,2013,2030269952e96b49c49445abed983a6c,Laura Brannelly,,,Laura Brannelly,,,,15,,,-35.958,148.401,,,,,,,,,,,,,,,,,30,,,,,,1404,10,,,,,,,,,,,,,,,,,,,,,,,,,,,,,,,,,,,,,,,,,,,,,,,https://n2t.net/ark:/21547/DQT22030269952e96b49c49445abed983a6c,zawacki,222,
Australia,Dinner Falls,2004,2050fe885d6411a084516b8f00745bc7,"Murray, Kris A - k.murray1[at]uq.edu.au",,,,Australasia,,,,300800,,-17.42611,145.48944,,,,,,,,,,,,,,919,,,,,Decimal degrees,,,,919,,,D | 1 | 1,Queensland,,,,,,,,,,,,,,,,,,,,,,,,,,,,,,,,,,,,,,,,,,,,https://n2t.net/ark:/21547/DsB22050fe885d6411a084516b8f00745bc7,release1,300,
Australia,Cooleman Creek Fire Trail,2006,20790f5f6944484a9c4b038da292c88c,"Hunter, David - david.hunter[at]environment.nsw.gov.au",,,,Australasia,,,,300327,,-35.43793,148.6008,,,,,,,,,,,,,,869,,,,,Decimal degrees,,,,869,,,D | 1 | 1,New South Wales,,,,,,,,,,,,,,,,,,,,,,,,,,,,,,,,,,,,,,,,,,,,https://n2t.net/ark:/21547/DsB220790f5f6944484a9c4b038da292c88c,release1,300,
Australia,"unnamed creek in Tully Gorge National Park, 150-m transect",2007,20da5e0634d5fa78959a5a928a69aab7,"Grogan, Laura F - laura.f.grogan[at]gmail.com",,,,Australasia,,,,300912,,-17.75,145.633333,,,,,,,,,,,,,,130,,,,,"DMS, converted",,,,130,,,D | 1 | 1,Queensland,,,,,,,,,,,,,,,,,,,,,,,,,,,,,,,,,,,,,,,,,,,,https://n2t.net/ark:/21547/DsB220da5e0634d5fa78959a5a928a69aab7,release1,300,
Australia,"Branch of Three Moon Creek, Kroombit Tops National Park, south-west of Gladstone, south-east Queensland.",2005,20f70395355e98443a272e4597c24566,"Murray, Kris A - k.murray1[at]uq.edu.au",,,,Australasia,,,,300681,,-24.4125,151.03361,,,,,,,,,,,,,,516,,,,,Decimal degrees,,,,516,,,D | 2 | 3,Queensland,,,,,,,,,,,,,,,,,,,,,,,,,,,,,,,,,,,,,,,,,,,,https://n2t.net/ark:/21547/DsB220f70395355e98443a272e4597c24566,release1,300,
Australia,"Bundaroo Creek, Mary River catchment",2004,2116209f8b38db75ad4719e4d2f5039f,"Kriger, Kerry M - kerry[at]savethefrogs.com",,,,Australasia,,,,300659,,-26.693056,152.611111,,,,,,,,,,,,,,495,,,,,"DMS, converted",,,,495,,,D | 2 | 2,Queensland,,,,,,,,,,,,,,,,,,,,,,,,,,,,,,,,,,,,,,,,,,,,https://n2t.net/ark:/21547/DsB22116209f8b38db75ad4719e4d2f5039f,release1,300,
Australia,"Perth, Western Australia, petshop tadpoles",1998,212d20c1259f41c6d6b9fcec8af7c740,"Berger, Lee - Lee.Berger[at]dah.csiro.au",,,,Australasia,,,,300027,,-31.95,115.86667,,,,,,,,,,,,,,,,,110,,Decimal degreescoordinate error based on 3 decimal-place precision of coordinates,,,,,,,D | 2 | 2,Western Australia,,,,,,,,,,,,,,,,,,,,,,,,,,,,,,,,,,,,,,,,,,,,https://n2t.net/ark:/21547/DsB2212d20c1259f41c6d6b9fcec8af7c740,release1,300,
Australia,"Ogilvies Dam, Kosciuszko National Park",2013,212e6071d4794072b07d7651e960f6af,"Brannelly, Laura - laura.brannelly[at]my.jcu.edu.au",,,,Australasia,,,15,301007,,-36.015831,148.327788,,,,,,,,,,,,,,,,,250,,"Google Earth, NSW topo maps",,,,,9,,D | 2 | 2,New South Wales,,,,,,,,,,,,,,,,,,,,,,,,,,,,,,,,,,,,,,,,,,,,https://n2t.net/ark:/21547/DsN2212e6071d4794072b07d7651e960f6af,release2,300,
Australia,"Lamington NP, SEQ",1996,218ddf2e0b08e11ebcc098041a403181,"Murray, Kris A - k.murray1[at]uq.edu.au",,,,Australasia,,,,300577,,-28.21917,153.1386,,,,,,,,,,,,,,660,,,,,Decimal degrees,,,,660,,,ND | 0 | 1,Queensland,,,,,,,,,,,,,,,,,,,,,,,,,,,,,,,,,,,,,,,,,,,,https://n2t.net/ark:/21547/DsB2218ddf2e0b08e11ebcc098041a403181,release1,300,
Australia,Burketown Rd,2005,219ad0dbc2ed6e31132f6bc8448698ae,"Murray, Kris A - k.murray1[at]uq.edu.au",,,,Australasia,,,,300772,,-17.72056,141.02194,,,,,,,,,,,,,,9,,,,,Decimal degrees,,,,9,,,ND | 0 | 1,Queensland,,,,,,,,,,,,,,,,,,,,,,,,,,,,,,,,,,,,,,,,,,,,https://n2t.net/ark:/21547/DsB2219ad0dbc2ed6e31132f6bc8448698ae,release1,300,
Australia,Arthur Pieman13,2007,21d4d133be9996534ef3ae913fe29b3b,"Driessen, Michael M - michael.driessen[at]dpipwe.tas.gov.au",,,,Australasia,,,,300284,,-41.33297,145.01405,,,,,,,,,,,,,,248,,,,,Decimal degrees,,,,248,1,,D | <unk> | <unk>,Tasmania,,,,,,,,,,,,,,,,,,,,,,,,,,,,,,,,,,,,,,,,,,,,https://n2t.net/ark:/21547/DsB221d4d133be9996534ef3ae913fe29b3b,release1,300,
Australia,Lacey Creek,2000,22504e59ccd330cc34487df61fc487c9,"Murray, Kris A - k.murray1[at]uq.edu.au",,,,Australasia,,,,300758,,-17.85222,146.06333,,,,,,,,,,,,,,142,,,,,Decimal degrees,,,,142,,,ND | 0 | 4,Queensland,,,,,,,,,,,,,,,,,,,,,,,,,,,,,,,,,,,,,,,,,,,,https://n2t.net/ark:/21547/DsB222504e59ccd330cc34487df61fc487c9,release1,300,
Australia,Mt. Cooke,1991,22612a25ad2b3f25d9c5858cd69248ab,"Murray, Kris A - k.murray1[at]uq.edu.au",,,,Australasia,,,,300439,,-32.41667,116.3,,,,,,,,,,,,,,553,,,,,Decimal degrees,,,,553,,,ND | 0 | 1,Western Australia,,,,,,,,,,,,,,,,,,,,,,,,,,,,,,,,,,,,,,,,,,,,https://n2t.net/ark:/21547/DsB222612a25ad2b3f25d9c5858cd69248ab,release1,300,
Australia,10 KM S Yallingup,1999,227efdc1e240f903632c7ff02987f9ba,"Murray, Kris A - k.murray1[at]uq.edu.au",,,,Australasia,,,,300418,,-33.71667,115.03333,,,,,,,,,,,,,,2,,,,,Decimal degrees,,,,2,,,D | 1 | 1,Western Australia,,,,,,,,,,,,,,,,,,,,,,,,,,,,,,,,,,,,,,,,,,,,https://n2t.net/ark:/21547/DsB2227efdc1e240f903632c7ff02987f9ba,release1,300,
Australia,"Victoria Park, Perth",1998,22bf393437bc91ee80b06389e8ddcbe0,"Murray, Kris A - k.murray1[at]uq.edu.au",,,,Australasia,,,,300475,,-31.95,115.86667,,,,,,,,,,,,,,52,,,,,Decimal degrees,,,,52,,,D | 1 | 2,Western Australia,,,,,,,,,,,,,,,,,,,,,,,,,,,,,,,,,,,,,,,,,,,,https://n2t.net/ark:/21547/DsB222bf393437bc91ee80b06389e8ddcbe0,release1,300,
Australia,"Eungella National Park, Queensland",2005,22c63e3619fd22478bea51500ddd408f,"Kriger, Kerry M - kmk5g[at]yahoo.com",,,,Australasia,,,,300082,,-21.08,148.64,,,,,,,,,,,,,,150,,,,,Decimal degrees,,,,150,,,D | 1 | 1,Queensland,,,,,,,,,,,,,,,,,,,,,,,,,,,,,,,,,,,,,,,,,,,,https://n2t.net/ark:/21547/DsB222c63e3619fd22478bea51500ddd408f,release1,300,
Australia,"Tully - Intens Monit Site, Qld",2001,22dae80d52b6a5fae23e3eee4550f984,"Murray, Kris A - k.murray1[at]uq.edu.au",,,,Australasia,,,,300761,,-17.77361,145.64472,,,,,,,,,,,,,,356,,,,,Decimal degrees,,,,356,,,D | 4 | 4,Queensland,,,,,,,,,,,,,,,,,,,,,,,,,,,,,,,,,,,,,,,,,,,,https://n2t.net/ark:/21547/DsB222dae80d52b6a5fae23e3eee4550f984,release1,300,
Australia,Helicopter flight6,2006,2303078b5f577e7b31f94dbc8db5420a,"Driessen, Michael M - michael.driessen[at]dpipwe.tas.gov.au",,,,Australasia,,,,300193,,-43.14497,146.13221,,,,,,,,,,,,,,171,,,,,Decimal degrees,,,,171,,,ND | <unk> | <unk>,Tasmania,,,,,,,,,,,,,,,,,,,,,,,,,,,,,,,,,,,,,,,,,,,,https://n2t.net/ark:/21547/DsB22303078b5f577e7b31f94dbc8db5420a,release1,300,
Australia,5 km NE Mt Lesueur,1989,230eee7afecb9b1a0e0a005c2c83d5e5,"Murray, Kris A - k.murray1[at]uq.edu.au",,,,Australasia,,,,300529,,-30.15,115.23333,,,,,,,,,,,,,,152,,,,,Decimal degrees,,,,152,,,ND | 0 | 1,Western Australia,,,,,,,,,,,,,,,,,,,,,,,,,,,,,,,,,,,,,,,,,,,,https://n2t.net/ark:/21547/DsB2230eee7afecb9b1a0e0a005c2c83d5e5,release1,300,
Australia,"Bundoomba Creek, upstream from Canungra Creek, Green Mountains section, Lamington National Park, south-east Queensland.",2004,2365f3e8cdb412a73a7a3f6aafecfd80,"Murray, Kris A - k.murray1[at]uq.edu.au",,,,Australasia,,,,300579,,-28.2175,153.13972,,,,,,,,,,,,,,660,,,,,Decimal degrees,,,,660,,,D | 1 | 1,Queensland,,,,,,,,,,,,,,,,,,,,,,,,,,,,,,,,,,,,,,,,,,,,https://n2t.net/ark:/21547/DsB22365f3e8cdb412a73a7a3f6aafecfd80,release1,300,
Australia,"Cunningham's Gap, Queensland",1996,236fa2810b6668c4c8c5670b21d141ee,"Berger, Lee - Lee.Berger[at]dah.csiro.au",,,,Australasia,,,,300008,,-28.0634,152.36296,,,,,,,,,,,,,,665,,,,,Decimal degrees,,,,665,,,D | 2 | 2,Queensland,,,,,,,,,,,,,,,,,,,,,,,,,,,,,,,,,,,,,,,,,,,,https://n2t.net/ark:/21547/DsB2236fa2810b6668c4c8c5670b21d141ee,release1,300,
Australia,Cordalba SF,1998,23b6372ed68b264fae411651bccf4ae4,"Murray, Kris A - k.murray1[at]uq.edu.au",,,,Australasia,,,,300676,,-25.15334,152.15335,,,,,,,,,,,,,,105,,,,,Decimal degrees,,,,105,,,ND | 0 | 3,Queensland,,,,,,,,,,,,,,,,,,,,,,,,,,,,,,,,,,,,,,,,,,,,https://n2t.net/ark:/21547/DsB223b6372ed68b264fae411651bccf4ae4,release1,300,
Australia,Townsville,1995,23c24c040c1a1c35d988e060ef8e3ce0,"Murray, Kris A - k.murray1[at]uq.edu.au",,,,Australasia,,,,300738,,-19.26447,146.81491,,,,,,,,,,,,,,1,,,,,Decimal degrees,,,,1,,,ND | 0 | 1,Queensland,,,,,,,,,,,,,,,,,,,,,,,,,,,,,,,,,,,,,,,,,,,,https://n2t.net/ark:/21547/DsB223c24c040c1a1c35d988e060ef8e3ce0,release1,300,
Australia,Oakey Ck 2,2007,2402a71a522b87b540799c87157a299e,"Murray, Kris A - k.murray1[at]uq.edu.au",,,,Australasia,,,,300543,,-28.77372,151.17165,,,,,,,,,,,,,,347,,,,,Decimal degrees,,,,347,,,ND | 0 | 2,Queensland,,,,,,,,,,,,,,,,,,,,,,,,,,,,,,,,,,,,,,,,,,,,https://n2t.net/ark:/21547/DsB22402a71a522b87b540799c87157a299e,release1,300,
Australia,"Upper Jagumba, Kosciuszko National Park",2006,240704cd7942f777e448dd3ff5f3180e,"Hunter, David - david.hunter[at]environment.nsw.gov.au",,,,Australasia,,,,300891,,-36.041038,148.260601,,,,,,,,,,,,,,,,,,,Google EarthNew South Wales online topographic maps,,,,,,,D | 1 | 1,New South Wales,,,,,,,,,,,,,,,,,,,,,,,,,,,,,,,,,,,,,,,,,,,,https://n2t.net/ark:/21547/DsB2240704cd7942f777e448dd3ff5f3180e,release1,300,
Australia,"Big Tableland IMS, Qld",1998,2411a2409e4e8960d71ac08231fd1730,"Murray, Kris A - k.murray1[at]uq.edu.au",,,,Australasia,,,,300000,,-15.71389,145.27333,,,,,,,,,,,,,,613,,,,,Decimal degrees,,,,613,,,D | 4 | 6,Queensland,,,,,,,,,,,,,,,,,,,,,,,,,,,,,,,,,,,,,,,,,,,,https://n2t.net/ark:/21547/DsB22411a2409e4e8960d71ac08231fd1730,release1,300,
Australia,north Rockhampton,1999,242b2c187007097e374a82e3754ced9e,"Murray, Kris A - k.murray1[at]uq.edu.au",,,,Australasia,,,,300699,,-23.36666,150.51667,,,,,,,,,,,,,,58,,,,,Decimal degrees,,,,58,,,D | 1 | 1,Queensland,,,,,,,,,,,,,,,,,,,,,,,,,,,,,,,,,,,,,,,,,,,,https://n2t.net/ark:/21547/DsB2242b2c187007097e374a82e3754ced9e,release1,300,
Australia,"Mt. Helena, Western Australia",1998,24469f7059b2e11ae309031b6ab888dc,"Berger, Lee - Lee.Berger[at]dah.csiro.au",,,,Australasia,,,,300029,,-31.875,116.208,,,,,,,,,,,,,,304,,,,,Decimal degrees,,,,304,,,D | 1 | 1,Western Australia,,,,,,,,,,,,,,,,,,,,,,,,,,,,,,,,,,,,,,,,,,,,https://n2t.net/ark:/21547/DsB224469f7059b2e11ae309031b6ab888dc,release1,300,
Australia,Site 22 - Taggerty,2010,2496c29d8b017295ed14beb3b7153450,See reference,,,,Australasia,,,6,301093,,-37.352854,145.707676,,,,,,,,,,,,,,,,,,,"UTM coordinates, converted",,,,,4,,ND | 0 | 1,Victoria,,,,,,,,,,,,,,,,,,,,,,,,,,,,,,,,,,,,,,,,,,,,https://n2t.net/ark:/21547/DsN22496c29d8b017295ed14beb3b7153450,release2,300,
Australia,Blencoe Falls,2006,255f85bc0856441b8a19518ffa313855,"Puschendorf, Robert - robert.puschendorf[at]jcu.edu.au",,,,Australasia,,,22,300753,,-18.22158,145.53344,,,,,,,,,,,,,,,,,,,Decimal degrees,,,,,9,,D | 1 | <unk>,Queensland,,,,,,,,,,,,,,,,,,,,,,,,,,,,,,,,,,,,,,,,,,,,https://n2t.net/ark:/21547/DsB2255f85bc0856441b8a19518ffa313855,release1,300,
Australia,"22-km stretch of Numinbah Valley, Nerang River catchment, SE Queensland",2004,25bffe44196c36ded3097e3de91ed651,"Kriger, Kerry M - kmk5g[at]yahoo.com",,,,Australasia,,,,300146,,-28.2837,153.2685,,,,,,,,,,,,,,252,,,,,"Google Earth, based on location name",,,,252,,,D | 10 | 13,Queensland,,,,,,,,,,,,,,,,,,,,,,,,,,,,,,,,,,,,,,,,,,,,https://n2t.net/ark:/21547/DsB225bffe44196c36ded3097e3de91ed651,release1,300,
Australia,"Kinka Beach, nr Rockhampton",1999,25e72cdd9f9842cb27032e7c40f67d71,"Murray, Kris A - k.murray1[at]uq.edu.au",,,,Australasia,,,,300700,,-23.224,150.792,,,,,,,,,,,,,,0,,,,,Decimal degrees,,,,0,,,D | 1 | 1,Queensland,,,,,,,,,,,,,,,,,,,,,,,,,,,,,,,,,,,,,,,,,,,,https://n2t.net/ark:/21547/DsB225e72cdd9f9842cb27032e7c40f67d71,release1,300,
Australia,"Boy-Ull Creek - below Twin Falls, Nerang River catchment",2004,25ff5cada8557aa172e2e9a275e40f1b,"Kriger, Kerry M - kerry[at]savethefrogs.com",,,,Australasia,,,,300573,,-28.223889,153.275,,,,,,,,,,,,,,720,,,,,"DMS, converted",,,,720,,,D | 2 | 2,Queensland,,,,,,,,,,,,,,,,,,,,,,,,,,,,,,,,,,,,,,,,,,,,https://n2t.net/ark:/21547/DsB225ff5cada8557aa172e2e9a275e40f1b,release1,300,
Australia,"Picnic Ground Creek, Eungella National Park, Queensland",1994,2615f79167cf5e90c65d5ff62ee2fcdc,"McCallum, Hamish - hmccallum[at]zen.uq.edu.au",,,,Australasia,,,,300153,,-21.07083,148.63778,,,,,,,,,,,,,,465,,,,,Decimal degrees,,,,465,,,D | 2 | 3,Queensland,,,,,,,,,,,,,,,,,,,,,,,,,,,,,,,,,,,,,,,,,,,,https://n2t.net/ark:/21547/DsB22615f79167cf5e90c65d5ff62ee2fcdc,release1,300,
Australia,McIllwraith Ranges Transect Ck,2002,26169cf7c14b83fe7747e4d0bf3a6bf7,"Murray, Kris A - k.murray1[at]uq.edu.au",,,,Australasia,,,,300870,,-13.73444,143.33972,,,,,,,,,,,,,,481,,,,,Decimal degrees,,,,481,,,ND | 0 | 3,Queensland,,,,,,,,,,,,,,,,,,,,,,,,,,,,,,,,,,,,,,,,,,,,https://n2t.net/ark:/21547/DsB226169cf7c14b83fe7747e4d0bf3a6bf7,release1,300,
Australia,Spurgeon dry,2006,2623e9c475f0c76ac000e31420dec76f,"Puschendorf, Robert - robert.puschendorf[at]jcu.edu.au",,,,Australasia,,,7,300834,,-16.46387,145.16691,,,,,,,,,,,,,,,,,,,Decimal degrees,,,,,9,,D | 4 | <unk>,Queensland,,,,,,,,,,,,,,,,,,,,,,,,,,,,,,,,,,,,,,,,,,,,https://n2t.net/ark:/21547/DsB22623e9c475f0c76ac000e31420dec76f,release1,300,
Australia,"Henrietta Creek, site AU4",2003,2637a9b8cac738fb5db8143c48b1d139,"Hauselberger, Kim - kim.hauselberger[at]my.jcu.edu.au",,,,Australasia,,,,300916,,-17.615333,145.755333,,,,,,,,,,,,,,400,,,,,"DMS, converted",,,,400,9,,ND | 0 | 3,Queensland,,,,,,,,,,,,,,,,,,,,,,,,,,,,,,,,,,,,,,,,,,,,https://n2t.net/ark:/21547/DsB22637a9b8cac738fb5db8143c48b1d139,release1,300,
Australia,Kate Reed Reserve,2004,2652ea74ebc925b7c402c7cc5c5a9b23,"Obendorf, David - davidobendorf[at]tassie.net.auMurray, Kris - k.murray1[at]uq.edu.au",,,,Australasia,,,,300273,,-41.47592,147.13773,,,,,,,,,,,,,,147,,,,,Decimal degrees,,,,147,9,,D | <unk> | <unk>,Tasmania,,,,,,,,,,,,,,,,,,,,,,,,,,,,,,,,,,,,,,,,,,,,https://n2t.net/ark:/21547/DsB22652ea74ebc925b7c402c7cc5c5a9b23,release1,300,
Australia,"Babinda Boulders/Double Barrel Creek, eastern Queensland",2005,268f072b2779386f07515108e22e338c,"Kriger, Kerry M - kmk5g[at]yahoo.com",,,,Australasia,,,,300074,,-17.342,145.869,,,,,,,,,,,,,,70,,,,,Decimal degrees,,,,70,,,D | 1 | 1,Queensland,,,,,,,,,,,,,,,,,,,,,,,,,,,,,,,,,,,,,,,,,,,,https://n2t.net/ark:/21547/DsB2268f072b2779386f07515108e22e338c,release1,300,
Australia,"Kingston Forest, Manjimup",1997,26bbba2ada6253740c15db90c07cf005,"Murray, Kris A - k.murray1[at]uq.edu.au",,,,Australasia,,,,300387,,-34.08333,116.33333,,,,,,,,,,,,,,301,,,,,Decimal degrees,,,,301,,,ND | 0 | 2,Western Australia,,,,,,,,,,,,,,,,,,,,,,,,,,,,,,,,,,,,,,,,,,,,https://n2t.net/ark:/21547/DsB226bbba2ada6253740c15db90c07cf005,release1,300,
Australia,"Bogong Creek, Kosciuszko National Park, 200-m transect along creek",1993,270885de6f1237d660c68eac3065ab2c,"Gillespie, Graeme - graeme.r.gillespie[at]gmail.com",,,,Australasia,,,,301002,,-36.356111,148.188333,,,,,,,,,,,,,,,,,,,"DMS, converted",,,,,12,,D | 1 | 1,New South Wales,,,,,,,,,,,,,,,,,,,,,,,,,,,,,,,,,,,,,,,,,,,,https://n2t.net/ark:/21547/DsN2270885de6f1237d660c68eac3065ab2c,release2,300,
Australia,Kuranda area,2003,27c15a0a754176d5b5b02c854310159f,"Murray, Kris A - k.murray1[at]uq.edu.au",,,,Australasia,,,,300827,,-16.90889,145.56694,,,,,,,,,,,,,,495,,,,,Decimal degrees,,,,495,,,ND | 0 | 7,Queensland,,,,,,,,,,,,,,,,,,,,,,,,,,,,,,,,,,,,,,,,,,,,https://n2t.net/ark:/21547/DsB227c15a0a754176d5b5b02c854310159f,release1,300,
Australia,"Kirrama Bridge 1, Murray Upper National Park",2005,27d55acbf06ceda3b6c5becee96405b0,"Alford, Ross - ross.alford[at]jcu.edu.au",,,,Australasia,,,,300910,,-18.203056,145.883333,,,,,,,,,,,,,,100,,,,,"DMS, converted",,,,,5,,D | 1 | 1,Queensland,,,,,,,,,,,,,,,,,,,,,,,,,,,,,,,,,,,,,,,,,,,,https://n2t.net/ark:/21547/DsN227d55acbf06ceda3b6c5becee96405b0,release2,300,
Australia,"The Brickpit, Sydney Olympic Park, 3 of 17 ponds",2006,27e97d9d38c1bb28f79f0e5d29b1f63b,"Stockwell, Michelle P - michelle.stockwell[at]newcastle.edu.au",,,,Australasia,,,13,301020,,-33.840657,151.069775,,,,,,,,,,,,,,,,,,,"Google Earth, NSW topo maps",,,,,11,,D | 2 | 3,New South Wales,,,,,,,,,,,,,,,,,,,,,,,,,,,,,,,,,,,,,,,,,,,,https://n2t.net/ark:/21547/DsN227e97d9d38c1bb28f79f0e5d29b1f63b,release2,300,
Australia,Central Bucca nr Coffs H.,1998,280af1240fb032b2e85c27ff6b4c97e3,"Murray, Kris A - k.murray1[at]uq.edu.au",,,,Australasia,,,,300531,,-30.147,153.094,,,,,,,,,,,,,,175,,,,,Decimal degrees,,,,175,,,ND | 0 | 1,New South Wales,,,,,,,,,,,,,,,,,,,,,,,,,,,,,,,,,,,,,,,,,,,,https://n2t.net/ark:/21547/DsB2280af1240fb032b2e85c27ff6b4c97e3,release1,300,
Australia,"1km east of Bogong Swamp, Kosciuszko NP",1979,286df60d3aa442966d40c212788ae700,"Murray, Kris A - k.murray1[at]uq.edu.au",,,,Australasia,,,,300307,,-36.165,148.351,,,,,,,,,,,,,,696,,,,,Decimal degrees,,,,696,,,ND | 0 | 1,New South Wales,,,,,,,,,,,,,,,,,,,,,,,,,,,,,,,,,,,,,,,,,,,,https://n2t.net/ark:/21547/DsB2286df60d3aa442966d40c212788ae700,release1,300,
Australia,Nanga,2008,287310b52eb7e844e1808c6c7c840b09,"Roberts, Dale - dale.roberts[at]uwa.edu.au",,,,Australasia,,,14,301119,,-32.75444,116.0864,,,,,,,,,,,,,,,,,,,Decimal degrees,,,,,7,,D | 1 | 1,Western Australia,,,,,,,,,,,,,,,,,,,,,,,,,,,,,,,,,,,,,,,,,,,,https://n2t.net/ark:/21547/DsN2287310b52eb7e844e1808c6c7c840b09,release2,300,
Australia,"4.7Km E Bullant Dve, Bussel",1992,28b2a188ccfdc7c0d5592922e424f963,"Murray, Kris A - k.murray1[at]uq.edu.au",,,,Australasia,,,,300385,,-34.1,115.15,,,,,,,,,,,,,,16,,,,,Decimal degrees,,,,16,,,ND | 0 | 1,Western Australia,,,,,,,,,,,,,,,,,,,,,,,,,,,,,,,,,,,,,,,,,,,,https://n2t.net/ark:/21547/DsB228b2a188ccfdc7c0d5592922e424f963,release1,300,
Australia,Tully Gorge National Park,2007,28d5284d74b626bbeeb8bedc8e0a4978,"Grogan, Laura - l.grogan[at]griffith.edu",,,,Australasia,,,19,301057,,-17.766667,145.633333,,,,,,,,,,,,,,,,,,,"DMS, converted",,,,,9,,D | 1 | 1,Queensland,,,,,,,,,,,,,,,,,,,,,,,,,,,,,,,,,,,,,,,,,,,,https://n2t.net/ark:/21547/DsN228d5284d74b626bbeeb8bedc8e0a4978,release2,300,
Australia,Rocky Gully,2008,290c2a319bab7f68223f64b95ce6ffd0,"Roberts, Dale - dale.roberts[at]uwa.edu.au",,,,Australasia,,,21,301110,,-34.51056,117.0183,,,,,,,,,,,,,,,,,,,Decimal degrees,,,,,8,,D | 1 | 1,Western Australia,,,,,,,,,,,,,,,,,,,,,,,,,,,,,,,,,,,,,,,,,,,,https://n2t.net/ark:/21547/DsN2290c2a319bab7f68223f64b95ce6ffd0,release2,300,
Australia,Bowraville,1999,2977b389c13c4d92373c6081e4e14947,"Murray, Kris A - k.murray1[at]uq.edu.au",,,,Australasia,,,,300519,,-30.65374,152.85201,,,,,,,,,,,,,,93,,,,,Decimal degrees,,,,93,,,D | 2 | 2,New South Wales,,,,,,,,,,,,,,,,,,,,,,,,,,,,,,,,,,,,,,,,,,,,https://n2t.net/ark:/21547/DsB22977b389c13c4d92373c6081e4e14947,release1,300,
Australia,Barnetts Rd.,2006,297d2193c8324f63067a32a11f69ec8e,"Hunter, David - david.hunter[at]environment.nsw.gov.au",,,,Australasia,,,,300898,,-35.348243,148.611278,,,,,,,,,,,,,,,,,,,Google EarthNew South Wales online topographic maps,,,,,,,ND | 0 | 1,New South Wales,,,,,,,,,,,,,,,,,,,,,,,,,,,,,,,,,,,,,,,,,,,,https://n2t.net/ark:/21547/DsB2297d2193c8324f63067a32a11f69ec8e,release1,300,
Australia,East Devonport,2005,29a0936c8be64eaf0c87471cc49c6094,"Obendorf, David - davidobendorf[at]tassie.net.auMurray, Kris - k.murray1[at]uq.edu.au",,,,Australasia,,,,300287,,-41.18248,146.3788,,,,,,,,,,,,,,1,,,,,Decimal degrees,,,,1,,,ND | <unk> | <unk>,Tasmania,,,,,,,,,,,,,,,,,,,,,,,,,,,,,,,,,,,,,,,,,,,,https://n2t.net/ark:/21547/DsB229a0936c8be64eaf0c87471cc49c6094,release1,300,
Australia,"Barron River, Qld",2000,29bc3b133331d789307e7a86dc8a538b,"Murray, Kris A - k.murray1[at]uq.edu.au",,,,Australasia,,,,300796,,-17.43,145.48389,,,,,,,,,,,,,,919,,,,,Decimal degrees,,,,919,,,D | 1 | 2,Queensland,,,,,,,,,,,,,,,,,,,,,,,,,,,,,,,,,,,,,,,,,,,,https://n2t.net/ark:/21547/DsB229bc3b133331d789307e7a86dc8a538b,release1,300,
Australia,"Mount Bullfight Nature Conservation Reserve, site B5, roadside drain",2009,29c5760d30484914e66c5ad290338a1e,See reference,,,,Australasia,,,,301090,,-37.42105,145.941735,,,,,,,,,,,,,,,,,,,"publication map, Google Earth",,,,,,,ND | 0 | <unk>,Victoria,,,,,,,,,,,,,,,,,,,,,,,,,,,,,,,,,,,,,,,,,,,,https://n2t.net/ark:/21547/DsN229c5760d30484914e66c5ad290338a1e,release2,300,
Australia,Mundaring,1998,2a5b35fad12cbd1c66b0c37b600a6729,"Murray, Kris A - k.murray1[at]uq.edu.au",,,,Australasia,,,,300473,,-31.96667,116.16667,,,,,,,,,,,,,,213,,,,,Decimal degrees,,,,213,,,ND | 0 | 1,Western Australia,,,,,,,,,,,,,,,,,,,,,,,,,,,,,,,,,,,,,,,,,,,,https://n2t.net/ark:/21547/DsB22a5b35fad12cbd1c66b0c37b600a6729,release1,300,
Australia,Kirrama uplands,2006,2a69358b6514794606a1fe2e08fd1314,"Puschendorf, Robert - robert.puschendorf[at]jcu.edu.au",,,,Australasia,,,22,300754,,-18.21613,145.78355,,,,,,,,,,,,,,,,,,,Decimal degrees,,,,,9,,D | 1 | <unk>,Queensland,,,,,,,,,,,,,,,,,,,,,,,,,,,,,,,,,,,,,,,,,,,,https://n2t.net/ark:/21547/DsB22a69358b6514794606a1fe2e08fd1314,release1,300,
Australia,6.3 KM ESE Denmark,1986,2a7028638c9b7607f228f16b2d46b121,"Murray, Kris A - k.murray1[at]uq.edu.au",,,,Australasia,,,,300341,,-34.98333,117.41667,,,,,,,,,,,,,,1,,,,,Decimal degrees,,,,1,,,ND | 0 | 1,Western Australia,,,,,,,,,,,,,,,,,,,,,,,,,,,,,,,,,,,,,,,,,,,,https://n2t.net/ark:/21547/DsB22a7028638c9b7607f228f16b2d46b121,release1,300,
Australia,"Bo Bo River, nr Dorrigo, NSW",1997,2a7850adf29fa0eb6c4a276e332ddff2,"Murray, Kris A - k.murray1[at]uq.edu.au",,,,Australasia,,,,300031,,-30.382,152.751,,,,,,,,,,,,,,438,,,,,Decimal degrees,,,,438,,,D | 1 | 1,New South Wales,,,,,,,,,,,,,,,,,,,,,,,,,,,,,,,,,,,,,,,,,,,,https://n2t.net/ark:/21547/DsB22a7850adf29fa0eb6c4a276e332ddff2,release1,300,
Australia,"Middle Creek, Cordalba State Forest, north of Childers, south-east Queensland.",1998,2a849422b6e99ebc37377fd6510e720b,"Murray, Kris A - k.murray1[at]uq.edu.au",,,,Australasia,,,,300675,,-25.16558,152.16613,,,,,,,,,,,,,,108,,,,,Decimal degrees,,,,108,,,ND | 0 | 4,Queensland,,,,,,,,,,,,,,,,,,,,,,,,,,,,,,,,,,,,,,,,,,,,https://n2t.net/ark:/21547/DsB22a849422b6e99ebc37377fd6510e720b,release1,300,
Australia,"Sugar Glider, northern coast of NSW",2012,2b0c4aeb85ce1a15bdc61442e9054abf,"Lettoof, Damian - damian.lettoof[at]sydney.edu.au",,,,Australasia,,,,301042,,-28.373026,153.555669,,,,,,,,,,,,,,,,,,,"UTM coordinates, converted",,,,,5,,Q | 1 | 3,New South Wales,,,,,,,,,,,,,,,,,,,,,,,,,,,,,,,,,,,,,,,,,,,,https://n2t.net/ark:/21547/DsN22b0c4aeb85ce1a15bdc61442e9054abf,release2,300,
Australia,"Broadwater Creek, Abergowrie State Forest, eastern Queensland",2005,2b0c8c74c07078763fcd8cebeadb70e8,"Kriger, Kerry M - kmk5g[at]yahoo.com",,,,Australasia,,,,300078,,-18.417,145.944,,,,,,,,,,,,,,70,,,,,Decimal degrees,,,,70,,,D | 1 | 1,Queensland,,,,,,,,,,,,,,,,,,,,,,,,,,,,,,,,,,,,,,,,,,,,https://n2t.net/ark:/21547/DsB22b0c8c74c07078763fcd8cebeadb70e8,release1,300,
Australia,"London Ck, near Peachester",2003,2b365006516ffdfa1f3886dbec2f6724,"Murray, Kris A - k.murray1[at]uq.edu.au",,,,Australasia,,,,300646,,-26.83,152.89,,,,,,,,,,,,,,282,,,,,Decimal degrees,,,,282,,,D | 1 | 1,Queensland,,,,,,,,,,,,,,,,,,,,,,,,,,,,,,,,,,,,,,,,,,,,https://n2t.net/ark:/21547/DsB22b365006516ffdfa1f3886dbec2f6724,release1,300,
Australia,Tumoulin,2005,2b4ad4d8be09843b07bb45c770fbea6b,"Murray, Kris A - k.murray1[at]uq.edu.au",,,,Australasia,,,,300792,,-17.54,145.45,,,,,,,,,,,,,,963,,,,,Decimal degrees,,,,963,,,D | 1 | 5,Queensland,,,,,,,,,,,,,,,,,,,,,,,,,,,,,,,,,,,,,,,,,,,,https://n2t.net/ark:/21547/DsB22b4ad4d8be09843b07bb45c770fbea6b,release1,300,
Australia,Mount Misery,2005,2b930d70ffb7c267abaef6cc9831d715,"Murray, Kris A - k.murray1[at]uq.edu.au",,,,Australasia,,,,300843,,-15.88972,145.21,,,,,,,,,,,,,,491,,,,,Decimal degrees,,,,491,,,D | 3 | 4,Queensland,,,,,,,,,,,,,,,,,,,,,,,,,,,,,,,,,,,,,,,,,,,,https://n2t.net/ark:/21547/DsB22b930d70ffb7c267abaef6cc9831d715,release1,300,
Australia,"Nandroya Falls, Palmerston NP, Qld",2000,2b964da51745eab425be998f5ceb0c49,"Murray, Kris A - k.murray1[at]uq.edu.au",,,,Australasia,,,,300789,,-17.58694,145.75722,,,,,,,,,,,,,,308,,,,,Decimal degrees,,,,308,,,D | 1 | 2,Queensland,,,,,,,,,,,,,,,,,,,,,,,,,,,,,,,,,,,,,,,,,,,,https://n2t.net/ark:/21547/DsB22b964da51745eab425be998f5ceb0c49,release1,300,
Australia,Rockhampton,2000,2b9f6a28222a42def37c39beb2063c16,"Murray, Kris A - k.murray1[at]uq.edu.au",,,,Australasia,,,,300698,,-23.38332,150.48334,,,,,,,,,,,,,,1,,,,,Decimal degrees,,,,1,,,D | 1 | 2,Queensland,,,,,,,,,,,,,,,,,,,,,,,,,,,,,,,,,,,,,,,,,,,,https://n2t.net/ark:/21547/DsB22b9f6a28222a42def37c39beb2063c16,release1,300,
Australia,"Kooragang Island, Hunter River",2006,2ba72336cbe68c0f0a29ccaadbcf173e,"Stockwell, Michelle P - michelle.stockwell[at]newcastle.edu.au",,,,Australasia,,,,301028,,-32.85,151.733333,,,,,,,,,,,,,,,,,,,"DMS, converted",,,,,,,D | 1 | 1,New South Wales,,,,,,,,,,,,,,,,,,,,,,,,,,,,,,,,,,,,,,,,,,,,https://n2t.net/ark:/21547/DsN22ba72336cbe68c0f0a29ccaadbcf173e,release2,300,
Australia,"Boy-Ull Creek - above Twin Falls, Nerang River catchment",2006,2bb7e69960e23f43a0ee234f87c38265,"Kriger, Kerry M - kerry[at]savethefrogs.com",,,,Australasia,,,,300569,,-28.226111,153.276111,,,,,,,,,,,,,,760,,,,,"DMS, converted",,,,760,,,D | 2 | 2,Queensland,,,,,,,,,,,,,,,,,,,,,,,,,,,,,,,,,,,,,,,,,,,,https://n2t.net/ark:/21547/DsB22bb7e69960e23f43a0ee234f87c38265,release1,300,
Australia,Tullah1,2006,2bba08fffcb87dc1abee358adb5676f3,"Driessen, Michael M - michael.driessen[at]dpipwe.tas.gov.au",,,,Australasia,,,,300259,,-41.73391,145.62464,,,,,,,,,,,,,,255,,,,,Decimal degrees,,,,255,,,ND | <unk> | <unk>,Tasmania,,,,,,,,,,,,,,,,,,,,,,,,,,,,,,,,,,,,,,,,,,,,https://n2t.net/ark:/21547/DsB22bba08fffcb87dc1abee358adb5676f3,release1,300,
Australia,Boyup Lake,1986,2bcbc55c6596ef0effb3c193d45f83b8,"Murray, Kris A - k.murray1[at]uq.edu.au",,,,Australasia,,,,300414,,-33.849,116.438,,,,,,,,,,,,,,164,,,,,Decimal degrees,,,,164,,,D | 1 | 1,Western Australia,,,,,,,,,,,,,,,,,,,,,,,,,,,,,,,,,,,,,,,,,,,,https://n2t.net/ark:/21547/DsB22bcbc55c6596ef0effb3c193d45f83b8,release1,300,
Australia,"Devils Peak, Brindabella NP",1999,2becf9c4535388acf7a294462f94aa65,"Murray, Kris A - k.murray1[at]uq.edu.au",,,,Australasia,,,,300335,,-35.2715,148.82948,,,,,,,,,,,,,,702,,,,,Decimal degrees,,,,702,,,D | 1 | 2,New South Wales,,,,,,,,,,,,,,,,,,,,,,,,,,,,,,,,,,,,,,,,,,,,https://n2t.net/ark:/21547/DsB22becf9c4535388acf7a294462f94aa65,release1,300,
Australia,"Railway Av, Endeavour Valley",2003,2bf9fcb68e570507a955f1bba1b10f41,"Murray, Kris A - k.murray1[at]uq.edu.au",,,,Australasia,,,,300857,,-15.44417,145.15111,,,,,,,,,,,,,,29,,,,,Decimal degrees,,,,29,,,ND | 0 | 1,Queensland,,,,,,,,,,,,,,,,,,,,,,,,,,,,,,,,,,,,,,,,,,,,https://n2t.net/ark:/21547/DsB22bf9fcb68e570507a955f1bba1b10f41,release1,300,
Australia,Unknown,2013,2c0e30522428d3ddb5d30935b25c69de,Laura Brannelly,,,Laura Brannelly,,,,25,,,-36.372,148.452,,,,,,,,,,,,,,,,,30,,,,,,1606,10,,,,,,,,,,,,,,,,,,,,,,,,,,,,,,,,,,,,,,,,,,,,,,,https://n2t.net/ark:/21547/DQT22c0e30522428d3ddb5d30935b25c69de,zawacki,222,
Australia,"Natural Bridge, Nerang River catchment",2006,2c2595a2cf6530b4ba29aaba1e190baf,"Kriger, Kerry M - kerry[at]savethefrogs.com",,,,Australasia,,,,300567,,-28.233056,153.241944,,,,,,,,,,,,,,270,,,,,"DMS, converted",,,,270,,,D | 2 | 2,Queensland,,,,,,,,,,,,,,,,,,,,,,,,,,,,,,,,,,,,,,,,,,,,https://n2t.net/ark:/21547/DsB22c2595a2cf6530b4ba29aaba1e190baf,release1,300,
Australia,Gaiswinkler KLR,2004,2c3ca74ee613e1924d3602578ebc5583,"Obendorf, David - davidobendorf[at]tassie.net.auMurray, Kris - k.murray1[at]uq.edu.au",,,,Australasia,,,,300209,,-42.88869,147.30739,,,,,,,,,,,,,,112,,,,,Decimal degrees,,,,112,9,,D | <unk> | <unk>,Tasmania,,,,,,,,,,,,,,,,,,,,,,,,,,,,,,,,,,,,,,,,,,,,https://n2t.net/ark:/21547/DsB22c3ca74ee613e1924d3602578ebc5583,release1,300,
Australia,Overland track2,2007,2c58e26d5c9a9929407e6eaced2082f7,"Driessen, Michael M - michael.driessen[at]dpipwe.tas.gov.au",,,,Australasia,,,,300258,,-41.74523,145.94726,,,,,,,,,,,,,,957,,,,,Decimal degrees,,,,957,1,,ND | <unk> | <unk>,Tasmania,,,,,,,,,,,,,,,,,,,,,,,,,,,,,,,,,,,,,,,,,,,,https://n2t.net/ark:/21547/DsB22c58e26d5c9a9929407e6eaced2082f7,release1,300,
Australia,"Toolong Plain, Snowy Mountains",1992,2c78bf233b4cb71a1d9bab8d47a05ac3,"Murray, Kris A - k.murray1[at]uq.edu.au",,,,Australasia,,,,300309,,-36.11667,148.35,,,,,,,,,,,,,,959,,,,,Decimal degrees,,,,959,,,D | 1 | 1,New South Wales,,,,,,,,,,,,,,,,,,,,,,,,,,,,,,,,,,,,,,,,,,,,https://n2t.net/ark:/21547/DsB22c78bf233b4cb71a1d9bab8d47a05ac3,release1,300,
Australia,Tully Gorge National Park,2007,2cd0b1a76a0fffc006af4cb6bb408e07,"Grogan, Laura - l.grogan[at]griffith.edu",,,,Australasia,,,28,301057,,-17.766667,145.633333,,,,,,,,,,,,,,,,,,,"DMS, converted",,,,,8,,D | 1 | 1,Queensland,,,,,,,,,,,,,,,,,,,,,,,,,,,,,,,,,,,,,,,,,,,,https://n2t.net/ark:/21547/DsN22cd0b1a76a0fffc006af4cb6bb408e07,release2,300,
Australia,"Ogilvies Dam, Kosciuszko National Park",2013,2d0bc124a261e295d44679a61b763b1b,"Brannelly, Laura - laura.brannelly[at]my.jcu.edu.au",,,,Australasia,,,8,301007,,-36.015831,148.327788,,,,,,,,,,,,,,,,,250,,"Google Earth, NSW topo maps",,,,,9,,D | 2 | 2,New South Wales,,,,,,,,,,,,,,,,,,,,,,,,,,,,,,,,,,,,,,,,,,,,https://n2t.net/ark:/21547/DsN22d0bc124a261e295d44679a61b763b1b,release2,300,
Australia,Helicopter flight7,2006,2d3137a638dc447e0b3956e1f2a1e757,"Driessen, Michael M - michael.driessen[at]dpipwe.tas.gov.au",,,,Australasia,,,,300190,,-43.18968,146.08232,,,,,,,,,,,,,,178,,,,,Decimal degrees,,,,178,,,ND | <unk> | <unk>,Tasmania,,,,,,,,,,,,,,,,,,,,,,,,,,,,,,,,,,,,,,,,,,,,https://n2t.net/ark:/21547/DsB22d3137a638dc447e0b3956e1f2a1e757,release1,300,
Australia,Big Scrub,1998,2d3613abe0f2fd42fac6c9ef8c5bbb7c,"Murray, Kris A - k.murray1[at]uq.edu.au",,,,Australasia,,,,300549,,-28.632,153.335,,,,,,,,,,,,,,317,,,,,Decimal degrees,,,,317,,,ND | 0 | 1,New South Wales,,,,,,,,,,,,,,,,,,,,,,,,,,,,,,,,,,,,,,,,,,,,https://n2t.net/ark:/21547/DsB22d3613abe0f2fd42fac6c9ef8c5bbb7c,release1,300,
Australia,"Ephemeral swamp at the junction of Moggill Road and Aitcheson Street, Moggill, south-east Queensland.",2005,2d3af391a3b9efdf42cfead6082d8a68,"Murray, Kris A - k.murray1[at]uq.edu.au",,,,Australasia,,,,300609,,-27.58667,152.86028,,,,,,,,,,,,,,57,,,,,Decimal degrees,,,,57,,,ND | 0 | 1,Queensland,,,,,,,,,,,,,,,,,,,,,,,,,,,,,,,,,,,,,,,,,,,,https://n2t.net/ark:/21547/DsB22d3af391a3b9efdf42cfead6082d8a68,release1,300,
Australia,"Narawang Wetland, Sydney Olympic Park, 5 of 7 ponds",2006,2d4a55faae9e19ae8e26b245c9bf3111,"Stockwell, Michelle P - michelle.stockwell[at]newcastle.edu.au",,,,Australasia,,,16,301022,,-33.836226,151.063079,,,,,,,,,,,,,,,,,,,"Google Earth, NSW topo maps",,,,,11,,D | 1 | 3,New South Wales,,,,,,,,,,,,,,,,,,,,,,,,,,,,,,,,,,,,,,,,,,,,https://n2t.net/ark:/21547/DsN22d4a55faae9e19ae8e26b245c9bf3111,release2,300,
Australia,"Upper Ogilvies, Kosciuszko National Park (Ogilvies A)",2006,2d638232a003b4513bfd8dd0f6db3ee4,"Hunter, David - david.hunter[at]environment.nsw.gov.au",,,,Australasia,,,,300312,,-36.0345,148.32421,,,,,,,,,,,,,,1104,,,,,Decimal degrees,,,,1104,,,ND | 0 | 1,New South Wales,,,,,,,,,,,,,,,,,,,,,,,,,,,,,,,,,,,,,,,,,,,,https://n2t.net/ark:/21547/DsB22d638232a003b4513bfd8dd0f6db3ee4,release1,300,
Australia,Endeavour Valley,2006,2d6d53957236cf7f6fab253a7ee79e14,"Murray, Kris A - k.murray1[at]uq.edu.au",,,,Australasia,,,,300860,,-15.42417,145.15417,,,,,,,,,,,,,,45,,,,,Decimal degrees,,,,45,,,ND | 0 | 10,Queensland,,,,,,,,,,,,,,,,,,,,,,,,,,,,,,,,,,,,,,,,,,,,https://n2t.net/ark:/21547/DsB22d6d53957236cf7f6fab253a7ee79e14,release1,300,
Australia,S.W Corner Lake Goolelal,1992,2d771c858be329d9fbc5d51420ab4b04,"Murray, Kris A - k.murray1[at]uq.edu.au",,,,Australasia,,,,300510,,-31.81667,115.81667,,,,,,,,,,,,,,48,,,,,Decimal degrees,,,,48,,,ND | 0 | 1,Western Australia,,,,,,,,,,,,,,,,,,,,,,,,,,,,,,,,,,,,,,,,,,,,https://n2t.net/ark:/21547/DsB22d771c858be329d9fbc5d51420ab4b04,release1,300,
Australia,"Olympic Site, Homebush",1998,2d83913f8d6b8283aafc091d2897988c,"Murray, Kris A - k.murray1[at]uq.edu.au",,,,Australasia,,,,300410,,-33.86806,151.08234,,,,,,,,,,,,,,4,,,,,Decimal degrees,,,,4,,,D | 1 | 1,New South Wales,,,,,,,,,,,,,,,,,,,,,,,,,,,,,,,,,,,,,,,,,,,,https://n2t.net/ark:/21547/DsB22d83913f8d6b8283aafc091d2897988c,release1,300,
Australia,"Tim Shea Creek, Bunya Mountains National Park",2002,2d99afdc94dd756389302c7876bb2b24,"Symonds, Emma P (Pearl) - pearl66[at]bigpond.com.au",,,,Australasia,,,,300133,,-26.08333,151.58333,,,,,,,,,,,,,,990,,,,,"DMS, converted",,,,990,,,D | 1 | 1,Queensland,,,,,,,,,,,,,,,,,,,,,,,,,,,,,,,,,,,,,,,,,,,,https://n2t.net/ark:/21547/DsB22d99afdc94dd756389302c7876bb2b24,release1,300,
Australia,"Lake Mountain, Marysville, Site L4, Echo Flat",2009,2e06b51f963dc1af8080d678fa651391,See reference,,,,Australasia,,,,301074,,-37.488368,145.880219,,,,,,,,,,,,,,,,,,,"publication map, Google Earth",,,,,,,D | <unk> | <unk>,Victoria,,,,,,,,,,,,,,,,,,,,,,,,,,,,,,,,,,,,,,,,,,,,https://n2t.net/ark:/21547/DsN22e06b51f963dc1af8080d678fa651391,release2,300,
Australia,Strathgordon50,2006,2e13bd2d7c0dbee9a6ae1d255e5e55d6,"Driessen, Michael M - michael.driessen[at]dpipwe.tas.gov.au",,,,Australasia,,,,300226,,-42.75542,146.41061,,,,,,,,,,,,,,574,,,,,Decimal degrees,,,,574,,,ND | <unk> | <unk>,Tasmania,,,,,,,,,,,,,,,,,,,,,,,,,,,,,,,,,,,,,,,,,,,,https://n2t.net/ark:/21547/DsB22e13bd2d7c0dbee9a6ae1d255e5e55d6,release1,300,
Australia,3 km SW Medina-Wallaby Swa,1976,2e2128ef795b8e1128125f47783cd250,"Murray, Kris A - k.murray1[at]uq.edu.au",,,,Australasia,,,,300442,,-32.26667,115.78333,,,,,,,,,,,,,,45,,,,,Decimal degrees,,,,45,,,ND | 0 | 1,Western Australia,,,,,,,,,,,,,,,,,,,,,,,,,,,,,,,,,,,,,,,,,,,,https://n2t.net/ark:/21547/DsB22e2128ef795b8e1128125f47783cd250,release1,300,
Australia,12 KM S Nannup,1999,2e3d788f29b97c44bb0347ca078c30ce,"Murray, Kris A - k.murray1[at]uq.edu.au",,,,Australasia,,,,300386,,-34.08333,115.75,,,,,,,,,,,,,,128,,,,,Decimal degrees,,,,128,,,D | 1 | 1,Western Australia,,,,,,,,,,,,,,,,,,,,,,,,,,,,,,,,,,,,,,,,,,,,https://n2t.net/ark:/21547/DsB22e3d788f29b97c44bb0347ca078c30ce,release1,300,
Australia,"Mussel Pool, 15 km NNE Perth",1975,2e47f7d2116b698e088a7ede32025722,"Murray, Kris A - k.murray1[at]uq.edu.au",,,,Australasia,,,,300501,,-31.86667,115.95,,,,,,,,,,,,,,83,,,,,Decimal degrees,,,,83,,,ND | 0 | 1,Western Australia,,,,,,,,,,,,,,,,,,,,,,,,,,,,,,,,,,,,,,,,,,,,https://n2t.net/ark:/21547/DsB22e47f7d2116b698e088a7ede32025722,release1,300,
Australia,Ridgeway Hall St Po,2005,2e7da0a5186ba32973654a5ed046789d,"Obendorf, David - davidobendorf[at]tassie.net.auMurray, Kris - k.murray1[at]uq.edu.au",,,,Australasia,,,,300203,,-42.92836,147.28798,,,,,,,,,,,,,,253,,,,,Decimal degrees,,,,253,,,ND | <unk> | <unk>,Tasmania,,,,,,,,,,,,,,,,,,,,,,,,,,,,,,,,,,,,,,,,,,,,https://n2t.net/ark:/21547/DsB22e7da0a5186ba32973654a5ed046789d,release1,300,
